entity_type,entity_id,doc_id,domain_id,lat,lon,canonical_name,streetName,landmarkToken,areaServed,lanternModel,locationCategory,powerState,status
streetlight,streetlight_000000,sl_000001,6,56.163076,10.160755,/d6/streetlight/sl_000001,"School St, Old Town Core",Old Town Core Riverside Park,Old Town Core Uptown,LED,facade,on,ok
streetlight,streetlight_000001,sl_000002,6,56.160427,10.172992,/d6/streetlight/sl_000002,"River Rd, Old Town Core",Old Town Core Historic Market,Old Town Core Commercial Strip,HPS,garden,off,defectiveLamp
streetlight,streetlight_000002,sl_000003,2,56.151117,10.20632,/d2/streetlight/sl_000003,"Willow Way, Eastshore Quarter",Eastshore Quarter City Library,Eastshore Quarter Residential Block,MH,park,low,columnIssue
streetlight,streetlight_000003,sl_000004,3,56.185667,10.201731,/d3/streetlight/sl_000004,"Canal St, South Hills",South Hills Botanical Garden,South Hills Transit Hub,fluorescent,pedestrianPath,bootingUp,brokenLantern
streetlight,streetlight_000004,sl_000005,2,56.195342,10.158651,/d2/streetlight/sl_000005,"Pine Rd, Eastshore Quarter",Eastshore Quarter Cultural Center,Eastshore Quarter Industrial Zone,LED,playground,on,ok
streetlight,streetlight_000005,sl_000006,3,56.177709,10.210008,/d3/streetlight/sl_000006,"Cedar Ln, South Hills",South Hills Art Museum,South Hills Industrial Zone,HPS,road,off,defectiveLamp
streetlight,streetlight_000006,sl_000007,2,56.151665,10.201883,/d2/streetlight/sl_000007,"Valley Path, Eastshore Quarter",Eastshore Quarter City Hall,Eastshore Quarter Waterfront,MH,sidewalk,low,columnIssue
streetlight,streetlight_000007,sl_000008,3,56.138117,10.244918,/d3/streetlight/sl_000008,"Cedar Ln, South Hills",South Hills Science Center,South Hills Residential Block,fluorescent,tunnel,bootingUp,brokenLantern
streetlight,streetlight_000008,sl_000009,2,56.168258,10.195577,/d2/streetlight/sl_000009,"Spruce St, Eastshore Quarter",Eastshore Quarter Sports Arena,Eastshore Quarter Financial Row,LED,facade,on,ok
streetlight,streetlight_000009,sl_000010,0,56.138815,10.214912,/d0/streetlight/sl_000010,"Cherry Ln, North Harbor",North Harbor Waterfront Promenade,North Harbor Industrial Zone,HPS,garden,off,defectiveLamp
streetlight,streetlight_000010,sl_000011,0,56.12092,10.213882,/d0/streetlight/sl_000011,"River Rd, North Harbor",North Harbor Science Center,North Harbor Downtown,MH,park,low,columnIssue
streetlight,streetlight_000011,sl_000012,3,56.188517,10.186233,/d3/streetlight/sl_000012,"Ash Ct, South Hills",South Hills Historic Market,South Hills Downtown,fluorescent,pedestrianPath,bootingUp,brokenLantern
streetlight,streetlight_000012,sl_000013,2,56.146555,10.222912,/d2/streetlight/sl_000013,"Summit Way, Eastshore Quarter",Eastshore Quarter Shopping Mall,Eastshore Quarter Downtown,LED,playground,on,ok
streetlight,streetlight_000013,sl_000014,4,56.191663,10.228161,/d4/streetlight/sl_000014,"Station Rd, Midtown Center",Midtown Center Cultural Center,Midtown Center Financial Row,HPS,road,off,defectiveLamp
streetlight,streetlight_000014,sl_000015,4,56.137168,10.155857,/d4/streetlight/sl_000015,"Queen Ave, Midtown Center",Midtown Center Sports Arena,Midtown Center Financial Row,MH,sidewalk,low,columnIssue
streetlight,streetlight_000015,sl_000016,6,56.156804,10.158469,/d6/streetlight/sl_000016,"Cedar Ln, Old Town Core",Old Town Core Science Center,Old Town Core Commercial Strip,fluorescent,tunnel,bootingUp,brokenLantern
streetlight,streetlight_000016,sl_000017,4,56.199638,10.206709,/d4/streetlight/sl_000017,"Gate St, Midtown Center",Midtown Center Waterfront Promenade,Midtown Center Transit Hub,LED,facade,on,ok
streetlight,streetlight_000017,sl_000018,3,56.199104,10.246954,/d3/streetlight/sl_000018,"Castle Rd, South Hills",South Hills Cathedral,South Hills Arts Quarter,HPS,garden,off,defectiveLamp
streetlight,streetlight_000018,sl_000019,3,56.150945,10.224723,/d3/streetlight/sl_000019,"Willow Way, South Hills",South Hills Cultural Center,South Hills Waterfront,MH,park,low,columnIssue
streetlight,streetlight_000019,sl_000020,2,56.161713,10.213358,/d2/streetlight/sl_000020,"King Blvd, Eastshore Quarter",Eastshore Quarter Shopping Mall,Eastshore Quarter Residential Block,fluorescent,pedestrianPath,bootingUp,brokenLantern
streetlight,streetlight_000020,sl_000021,2,56.17779,10.159996,/d2/streetlight/sl_000021,"Garden St, Eastshore Quarter",Eastshore Quarter University Campus,Eastshore Quarter Residential Block,LED,playground,on,ok
streetlight,streetlight_000021,sl_000022,4,56.18376,10.209311,/d4/streetlight/sl_000022,"Castle Rd, Midtown Center",Midtown Center Riverside Park,Midtown Center Industrial Zone,HPS,road,off,defectiveLamp
streetlight,streetlight_000022,sl_000023,7,56.195682,10.218656,/d7/streetlight/sl_000023,"Market Rd, Greenfield Park",Greenfield Park Convention Center,Greenfield Park Financial Row,MH,sidewalk,low,columnIssue
streetlight,streetlight_000023,sl_000024,0,56.14145,10.207892,/d0/streetlight/sl_000024,"Park Rd, North Harbor",North Harbor Cathedral,North Harbor Waterfront,fluorescent,tunnel,bootingUp,brokenLantern
streetlight,streetlight_000024,sl_000025,6,56.167846,10.160692,/d6/streetlight/sl_000025,"Valley Path, Old Town Core",Old Town Core Art Museum,Old Town Core Civic Center,LED,facade,on,ok
streetlight,streetlight_000025,sl_000026,6,56.164504,10.165911,/d6/streetlight/sl_000026,"Willow Way, Old Town Core",Old Town Core Historic Market,Old Town Core Financial Row,HPS,garden,off,defectiveLamp
streetlight,streetlight_000026,sl_000027,0,56.131593,10.190449,/d0/streetlight/sl_000027,"Church Ln, North Harbor",North Harbor Lighthouse,North Harbor Arts Quarter,MH,park,low,columnIssue
streetlight,streetlight_000027,sl_000028,2,56.193982,10.168713,/d2/streetlight/sl_000028,"Maple Blvd, Eastshore Quarter",Eastshore Quarter Cultural Center,Eastshore Quarter Arts Quarter,fluorescent,pedestrianPath,bootingUp,brokenLantern
streetlight,streetlight_000028,sl_000029,3,56.145681,10.193767,/d3/streetlight/sl_000029,"Gate St, South Hills",South Hills Art Museum,South Hills Industrial Zone,LED,playground,on,ok
streetlight,streetlight_000029,sl_000030,7,56.190975,10.22904,/d7/streetlight/sl_000030,"Willow Way, Greenfield Park",Greenfield Park Historic Market,Greenfield Park Industrial Zone,HPS,road,off,defectiveLamp
streetlight,streetlight_000030,sl_000031,2,56.189182,10.169885,/d2/streetlight/sl_000031,"Cherry Ln, Eastshore Quarter",Eastshore Quarter Riverside Park,Eastshore Quarter Financial Row,MH,sidewalk,low,columnIssue
streetlight,streetlight_000031,sl_000032,0,56.123319,10.198062,/d0/streetlight/sl_000032,"Elm St, North Harbor",North Harbor Town Square,North Harbor Uptown,fluorescent,tunnel,bootingUp,brokenLantern
streetlight,streetlight_000032,sl_000033,3,56.146242,10.245861,/d3/streetlight/sl_000033,"Bridge Ln, South Hills",South Hills Main Station,South Hills Industrial Zone,LED,facade,on,ok
streetlight,streetlight_000033,sl_000034,2,56.188046,10.163697,/d2/streetlight/sl_000034,"Station Rd, Eastshore Quarter",Eastshore Quarter University Campus,Eastshore Quarter Transit Hub,HPS,garden,off,defectiveLamp
streetlight,streetlight_000034,sl_000035,4,56.122691,10.157,/d4/streetlight/sl_000035,"Oak Ave, Midtown Center",Midtown Center Science Center,Midtown Center Arts Quarter,MH,park,low,columnIssue
streetlight,streetlight_000035,sl_000036,4,56.141324,10.157867,/d4/streetlight/sl_000036,"Park Rd, Midtown Center",Midtown Center Town Square,Midtown Center Commercial Strip,fluorescent,pedestrianPath,bootingUp,brokenLantern
streetlight,streetlight_000036,sl_000037,6,56.148589,10.172069,/d6/streetlight/sl_000037,"River Rd, Old Town Core",Old Town Core Botanical Garden,Old Town Core Transit Hub,LED,playground,on,ok
streetlight,streetlight_000037,sl_000038,2,56.184788,10.154694,/d2/streetlight/sl_000038,"Willow Way, Eastshore Quarter",Eastshore Quarter Historic Market,Eastshore Quarter Residential Block,HPS,road,off,defectiveLamp
streetlight,streetlight_000038,sl_000039,2,56.189587,10.161791,/d2/streetlight/sl_000039,"Gate St, Eastshore Quarter",Eastshore Quarter Town Square,Eastshore Quarter Commercial Strip,MH,sidewalk,low,columnIssue
streetlight,streetlight_000039,sl_000040,0,56.121905,10.213563,/d0/streetlight/sl_000040,"Canal St, North Harbor",North Harbor Town Square,North Harbor Industrial Zone,fluorescent,tunnel,bootingUp,brokenLantern
streetlight,streetlight_000040,sl_000041,3,56.141769,10.239318,/d3/streetlight/sl_000041,"Cedar Ln, South Hills",South Hills Cultural Center,South Hills Financial Row,LED,facade,on,ok
streetlight,streetlight_000041,sl_000042,7,56.182241,10.219029,/d7/streetlight/sl_000042,"Gate St, Greenfield Park",Greenfield Park Main Station,Greenfield Park Uptown,HPS,garden,off,defectiveLamp
streetlight,streetlight_000042,sl_000043,6,56.161603,10.172838,/d6/streetlight/sl_000043,"Valley Path, Old Town Core",Old Town Core Riverside Park,Old Town Core Residential Block,MH,park,low,columnIssue
streetlight,streetlight_000043,sl_000044,3,56.153621,10.189671,/d3/streetlight/sl_000044,"School St, South Hills",South Hills City Hall,South Hills Commercial Strip,fluorescent,pedestrianPath,bootingUp,brokenLantern
streetlight,streetlight_000044,sl_000045,3,56.163481,10.24453,/d3/streetlight/sl_000045,"Castle Rd, South Hills",South Hills Botanical Garden,South Hills Civic Center,LED,playground,on,ok
streetlight,streetlight_000045,sl_000046,3,56.149645,10.221224,/d3/streetlight/sl_000046,"Maple Blvd, South Hills",South Hills City Hall,South Hills Industrial Zone,HPS,road,off,defectiveLamp
streetlight,streetlight_000046,sl_000047,4,56.126333,10.168798,/d4/streetlight/sl_000047,"Elm St, Midtown Center",Midtown Center Cathedral,Midtown Center Waterfront,MH,sidewalk,low,columnIssue
streetlight,streetlight_000047,sl_000048,3,56.164945,10.223697,/d3/streetlight/sl_000048,"Castle Rd, South Hills",South Hills Art Museum,South Hills Waterfront,fluorescent,tunnel,bootingUp,brokenLantern
streetlight,streetlight_000048,sl_000049,3,56.174157,10.190332,/d3/streetlight/sl_000049,"Birch Dr, South Hills",South Hills Cultural Center,South Hills Arts Quarter,LED,facade,on,ok
streetlight,streetlight_000049,sl_000050,3,56.196497,10.240656,/d3/streetlight/sl_000050,"Lake Dr, South Hills",South Hills Science Center,South Hills Downtown,HPS,garden,off,defectiveLamp
streetlight,streetlight_000050,sl_000051,4,56.175334,10.228739,/d4/streetlight/sl_000051,"Oak Ave, Midtown Center",Midtown Center City Library,Midtown Center Financial Row,MH,park,low,columnIssue
streetlight,streetlight_000051,sl_000052,3,56.147446,10.207468,/d3/streetlight/sl_000052,"Forest Ave, South Hills",South Hills City Library,South Hills Downtown,fluorescent,pedestrianPath,bootingUp,brokenLantern
streetlight,streetlight_000052,sl_000053,6,56.143183,10.163587,/d6/streetlight/sl_000053,"Ash Ct, Old Town Core",Old Town Core Cathedral,Old Town Core Industrial Zone,LED,playground,on,ok
streetlight,streetlight_000053,sl_000054,7,56.18691,10.205622,/d7/streetlight/sl_000054,"Ash Ct, Greenfield Park",Greenfield Park Clock Tower,Greenfield Park Financial Row,HPS,road,off,defectiveLamp
streetlight,streetlight_000054,sl_000055,2,56.182597,10.156549,/d2/streetlight/sl_000055,"Lake Dr, Eastshore Quarter",Eastshore Quarter Riverside Park,Eastshore Quarter Industrial Zone,MH,sidewalk,low,columnIssue
streetlight,streetlight_000055,sl_000056,0,56.127899,10.179226,/d0/streetlight/sl_000056,"Lake Dr, North Harbor",North Harbor Riverside Park,North Harbor Commercial Strip,fluorescent,tunnel,bootingUp,brokenLantern
streetlight,streetlight_000056,sl_000057,7,56.182861,10.213975,/d7/streetlight/sl_000057,"Willow Way, Greenfield Park",Greenfield Park Town Square,Greenfield Park Arts Quarter,LED,facade,on,ok
streetlight,streetlight_000057,sl_000058,4,56.199355,10.24166,/d4/streetlight/sl_000058,"Market Rd, Midtown Center",Midtown Center Convention Center,Midtown Center Transit Hub,HPS,garden,off,defectiveLamp
streetlight,streetlight_000058,sl_000059,3,56.142147,10.2353,/d3/streetlight/sl_000059,"Ash Ct, South Hills",South Hills Riverside Park,South Hills Commercial Strip,MH,park,low,columnIssue
streetlight,streetlight_000059,sl_000060,6,56.169159,10.15103,/d6/streetlight/sl_000060,"Valley Path, Old Town Core",Old Town Core Art Museum,Old Town Core Arts Quarter,fluorescent,pedestrianPath,bootingUp,brokenLantern
streetlight,streetlight_000060,sl_000061,4,56.160167,10.2451,/d4/streetlight/sl_000061,"Oak Ave, Midtown Center",Midtown Center Shopping Mall,Midtown Center Waterfront,LED,playground,on,ok
streetlight,streetlight_000061,sl_000062,1,56.183325,10.234679,/d1/streetlight/sl_000062,"River Rd, Westside Heights",Westside Heights Shopping Mall,Westside Heights Waterfront,HPS,road,off,defectiveLamp
streetlight,streetlight_000062,sl_000063,3,56.146358,10.215486,/d3/streetlight/sl_000063,"Park Rd, South Hills",South Hills City Library,South Hills Financial Row,MH,sidewalk,low,columnIssue
streetlight,streetlight_000063,sl_000064,2,56.182472,10.154559,/d2/streetlight/sl_000064,"Station Rd, Eastshore Quarter",Eastshore Quarter Art Museum,Eastshore Quarter Residential Block,fluorescent,tunnel,bootingUp,brokenLantern
streetlight,streetlight_000064,sl_000065,1,56.143779,10.240236,/d1/streetlight/sl_000065,"Forest Ave, Westside Heights",Westside Heights Historic Market,Westside Heights Arts Quarter,LED,facade,on,ok
streetlight,streetlight_000065,sl_000066,4,56.154297,10.204279,/d4/streetlight/sl_000066,"Canal St, Midtown Center",Midtown Center Lighthouse,Midtown Center Commercial Strip,HPS,garden,off,defectiveLamp
streetlight,streetlight_000066,sl_000067,4,56.164263,10.209696,/d4/streetlight/sl_000067,"Forest Ave, Midtown Center",Midtown Center University Campus,Midtown Center Commercial Strip,MH,park,low,columnIssue
streetlight,streetlight_000067,sl_000068,6,56.165569,10.17393,/d6/streetlight/sl_000068,"Mill Rd, Old Town Core",Old Town Core Lighthouse,Old Town Core Financial Row,fluorescent,pedestrianPath,bootingUp,brokenLantern
streetlight,streetlight_000068,sl_000069,7,56.196667,10.178862,/d7/streetlight/sl_000069,"Spruce St, Greenfield Park",Greenfield Park Convention Center,Greenfield Park Uptown,LED,playground,on,ok
streetlight,streetlight_000069,sl_000070,7,56.19751,10.22514,/d7/streetlight/sl_000070,"Market Rd, Greenfield Park",Greenfield Park Sports Arena,Greenfield Park Civic Center,HPS,road,off,defectiveLamp
streetlight,streetlight_000070,sl_000071,1,56.144808,10.24347,/d1/streetlight/sl_000071,"Cedar Ln, Westside Heights",Westside Heights Art Museum,Westside Heights Arts Quarter,MH,sidewalk,low,columnIssue
streetlight,streetlight_000071,sl_000072,7,56.179837,10.221724,/d7/streetlight/sl_000072,"Park Rd, Greenfield Park",Greenfield Park City Hall,Greenfield Park Financial Row,fluorescent,tunnel,bootingUp,brokenLantern
streetlight,streetlight_000072,sl_000073,4,56.12324,10.168591,/d4/streetlight/sl_000073,"Market Rd, Midtown Center",Midtown Center University Campus,Midtown Center Commercial Strip,LED,facade,on,ok
streetlight,streetlight_000073,sl_000074,7,56.192852,10.200483,/d7/streetlight/sl_000074,"Lake Dr, Greenfield Park",Greenfield Park Lighthouse,Greenfield Park Downtown,HPS,garden,off,defectiveLamp
streetlight,streetlight_000074,sl_000075,0,56.142311,10.195613,/d0/streetlight/sl_000075,"Lake Dr, North Harbor",North Harbor Convention Center,North Harbor Financial Row,MH,park,low,columnIssue
streetlight,streetlight_000075,sl_000076,4,56.124125,10.157197,/d4/streetlight/sl_000076,"Tower Ln, Midtown Center",Midtown Center Main Station,Midtown Center Financial Row,fluorescent,pedestrianPath,bootingUp,brokenLantern
streetlight,streetlight_000076,sl_000077,6,56.15695,10.172629,/d6/streetlight/sl_000077,"Station Rd, Old Town Core",Old Town Core City Library,Old Town Core Financial Row,LED,playground,on,ok
streetlight,streetlight_000077,sl_000078,2,56.199242,10.150305,/d2/streetlight/sl_000078,"Summit Way, Eastshore Quarter",Eastshore Quarter Harbor Bridge,Eastshore Quarter Transit Hub,HPS,road,off,defectiveLamp
streetlight,streetlight_000078,sl_000079,7,56.181528,10.217469,/d7/streetlight/sl_000079,"Cherry Ln, Greenfield Park",Greenfield Park Cathedral,Greenfield Park Financial Row,MH,sidewalk,low,columnIssue
streetlight,streetlight_000079,sl_000080,7,56.192911,10.189064,/d7/streetlight/sl_000080,"Forest Ave, Greenfield Park",Greenfield Park Cultural Center,Greenfield Park Arts Quarter,fluorescent,tunnel,bootingUp,brokenLantern
streetlight,streetlight_000080,sl_000081,6,56.168428,10.177191,/d6/streetlight/sl_000081,"Valley Path, Old Town Core",Old Town Core Science Center,Old Town Core Civic Center,LED,facade,on,ok
streetlight,streetlight_000081,sl_000082,6,56.152848,10.154039,/d6/streetlight/sl_000082,"Market Rd, Old Town Core",Old Town Core Sports Arena,Old Town Core Civic Center,HPS,garden,off,defectiveLamp
streetlight,streetlight_000082,sl_000083,4,56.145071,10.208767,/d4/streetlight/sl_000083,"Market Rd, Midtown Center",Midtown Center Harbor Bridge,Midtown Center Transit Hub,MH,park,low,columnIssue
streetlight,streetlight_000083,sl_000084,6,56.156796,10.171733,/d6/streetlight/sl_000084,"River Rd, Old Town Core",Old Town Core Shopping Mall,Old Town Core Uptown,fluorescent,pedestrianPath,bootingUp,brokenLantern
streetlight,streetlight_000084,sl_000085,3,56.130914,10.224887,/d3/streetlight/sl_000085,"Cherry Ln, South Hills",South Hills Harbor Bridge,South Hills Residential Block,LED,playground,on,ok
streetlight,streetlight_000085,sl_000086,4,56.123997,10.155868,/d4/streetlight/sl_000086,"Harbor Blvd, Midtown Center",Midtown Center University Campus,Midtown Center Uptown,HPS,road,off,defectiveLamp
streetlight,streetlight_000086,sl_000087,3,56.136877,10.241046,/d3/streetlight/sl_000087,"Oak Ave, South Hills",South Hills Shopping Mall,South Hills Financial Row,MH,sidewalk,low,columnIssue
streetlight,streetlight_000087,sl_000088,1,56.150191,10.233323,/d1/streetlight/sl_000088,"Ash Ct, Westside Heights",Westside Heights Shopping Mall,Westside Heights Transit Hub,fluorescent,tunnel,bootingUp,brokenLantern
streetlight,streetlight_000088,sl_000089,2,56.190232,10.166719,/d2/streetlight/sl_000089,"Station Rd, Eastshore Quarter",Eastshore Quarter Historic Market,Eastshore Quarter Downtown,LED,facade,on,ok
streetlight,streetlight_000089,sl_000090,5,56.146246,10.214316,/d5/streetlight/sl_000090,"Summit Way, Lakeside District",Lakeside District Central Plaza,Lakeside District Residential Block,HPS,garden,off,defectiveLamp
streetlight,streetlight_000090,sl_000091,0,56.126198,10.202643,/d0/streetlight/sl_000091,"School St, North Harbor",North Harbor Botanical Garden,North Harbor Arts Quarter,MH,park,low,columnIssue
streetlight,streetlight_000091,sl_000092,6,56.170311,10.175286,/d6/streetlight/sl_000092,"Canal St, Old Town Core",Old Town Core Town Square,Old Town Core Residential Block,fluorescent,pedestrianPath,bootingUp,brokenLantern
streetlight,streetlight_000092,sl_000093,7,56.188762,10.20248,/d7/streetlight/sl_000093,"Lake Dr, Greenfield Park",Greenfield Park Lighthouse,Greenfield Park Downtown,LED,playground,on,ok
streetlight,streetlight_000093,sl_000094,6,56.153165,10.172132,/d6/streetlight/sl_000094,"Queen Ave, Old Town Core",Old Town Core Lighthouse,Old Town Core Industrial Zone,HPS,road,off,defectiveLamp
streetlight,streetlight_000094,sl_000095,6,56.154445,10.167012,/d6/streetlight/sl_000095,"Queen Ave, Old Town Core",Old Town Core City Hall,Old Town Core Residential Block,MH,sidewalk,low,columnIssue
streetlight,streetlight_000095,sl_000096,5,56.16549,10.188507,/d5/streetlight/sl_000096,"Ash Ct, Lakeside District",Lakeside District Central Plaza,Lakeside District Downtown,fluorescent,tunnel,bootingUp,brokenLantern
streetlight,streetlight_000096,sl_000097,4,56.121347,10.154936,/d4/streetlight/sl_000097,"Spruce St, Midtown Center",Midtown Center Sports Arena,Midtown Center Financial Row,LED,facade,on,ok
streetlight,streetlight_000097,sl_000098,0,56.120894,10.181277,/d0/streetlight/sl_000098,"Mill Rd, North Harbor",North Harbor City Library,North Harbor Waterfront,HPS,garden,off,defectiveLamp
streetlight,streetlight_000098,sl_000099,3,56.127118,10.235433,/d3/streetlight/sl_000099,"School St, South Hills",South Hills Harbor Bridge,South Hills Uptown,MH,park,low,columnIssue
streetlight,streetlight_000099,sl_000100,1,56.158865,10.226913,/d1/streetlight/sl_000100,"Castle Rd, Westside Heights",Westside Heights Art Museum,Westside Heights Transit Hub,fluorescent,pedestrianPath,bootingUp,brokenLantern
streetlight,streetlight_000100,sl_000101,1,56.151484,10.245371,/d1/streetlight/sl_000101,"Market Rd, Westside Heights",Westside Heights Shopping Mall,Westside Heights Uptown,LED,playground,on,ok
streetlight,streetlight_000101,sl_000102,7,56.195438,10.213584,/d7/streetlight/sl_000102,"Queen Ave, Greenfield Park",Greenfield Park Sports Arena,Greenfield Park Arts Quarter,HPS,road,off,defectiveLamp
streetlight,streetlight_000102,sl_000103,1,56.177777,10.229968,/d1/streetlight/sl_000103,"Tower Ln, Westside Heights",Westside Heights Convention Center,Westside Heights Waterfront,MH,sidewalk,low,columnIssue
streetlight,streetlight_000103,sl_000104,6,56.173892,10.163836,/d6/streetlight/sl_000104,"Queen Ave, Old Town Core",Old Town Core Art Museum,Old Town Core Downtown,fluorescent,tunnel,bootingUp,brokenLantern
streetlight,streetlight_000104,sl_000105,3,56.140231,10.248777,/d3/streetlight/sl_000105,"Pine Rd, South Hills",South Hills Riverside Park,South Hills Civic Center,LED,facade,on,ok
streetlight,streetlight_000105,sl_000106,5,56.173691,10.184684,/d5/streetlight/sl_000106,"Tower Ln, Lakeside District",Lakeside District Cultural Center,Lakeside District Arts Quarter,HPS,garden,off,defectiveLamp
streetlight,streetlight_000106,sl_000107,0,56.125895,10.192587,/d0/streetlight/sl_000107,"Spruce St, North Harbor",North Harbor Cathedral,North Harbor Residential Block,MH,park,low,columnIssue
streetlight,streetlight_000107,sl_000108,1,56.194599,10.236853,/d1/streetlight/sl_000108,"Park Rd, Westside Heights",Westside Heights Cathedral,Westside Heights Civic Center,fluorescent,pedestrianPath,bootingUp,brokenLantern
streetlight,streetlight_000108,sl_000109,1,56.153966,10.229056,/d1/streetlight/sl_000109,"Pine Rd, Westside Heights",Westside Heights University Campus,Westside Heights Civic Center,LED,playground,on,ok
streetlight,streetlight_000109,sl_000110,6,56.150559,10.164799,/d6/streetlight/sl_000110,"Ash Ct, Old Town Core",Old Town Core City Hall,Old Town Core Arts Quarter,HPS,road,off,defectiveLamp
streetlight,streetlight_000110,sl_000111,2,56.196367,10.157466,/d2/streetlight/sl_000111,"Mill Rd, Eastshore Quarter",Eastshore Quarter Convention Center,Eastshore Quarter Financial Row,MH,sidewalk,low,columnIssue
streetlight,streetlight_000111,sl_000112,0,56.133504,10.188129,/d0/streetlight/sl_000112,"Forest Ave, North Harbor",North Harbor Convention Center,North Harbor Waterfront,fluorescent,tunnel,bootingUp,brokenLantern
streetlight,streetlight_000112,sl_000113,0,56.140247,10.215086,/d0/streetlight/sl_000113,"King Blvd, North Harbor",North Harbor City Library,North Harbor Arts Quarter,LED,facade,on,ok
streetlight,streetlight_000113,sl_000114,1,56.145522,10.237364,/d1/streetlight/sl_000114,"Harbor Blvd, Westside Heights",Westside Heights Science Center,Westside Heights Waterfront,HPS,garden,off,defectiveLamp
streetlight,streetlight_000114,sl_000115,0,56.121861,10.1782,/d0/streetlight/sl_000115,"Maple Blvd, North Harbor",North Harbor Historic Market,North Harbor Commercial Strip,MH,park,low,columnIssue
streetlight,streetlight_000115,sl_000116,7,56.185383,10.180028,/d7/streetlight/sl_000116,"Bridge Ln, Greenfield Park",Greenfield Park Harbor Bridge,Greenfield Park Civic Center,fluorescent,pedestrianPath,bootingUp,brokenLantern
streetlight,streetlight_000116,sl_000117,5,56.171037,10.201441,/d5/streetlight/sl_000117,"Valley Path, Lakeside District",Lakeside District City Hall,Lakeside District Residential Block,LED,playground,on,ok
streetlight,streetlight_000117,sl_000118,6,56.161174,10.161234,/d6/streetlight/sl_000118,"Gate St, Old Town Core",Old Town Core Botanical Garden,Old Town Core Arts Quarter,HPS,road,off,defectiveLamp
streetlight,streetlight_000118,sl_000119,1,56.159481,10.225452,/d1/streetlight/sl_000119,"Pine Rd, Westside Heights",Westside Heights Central Plaza,Westside Heights Downtown,MH,sidewalk,low,columnIssue
streetlight,streetlight_000119,sl_000120,0,56.123684,10.205226,/d0/streetlight/sl_000120,"King Blvd, North Harbor",North Harbor Convention Center,North Harbor Commercial Strip,fluorescent,tunnel,bootingUp,brokenLantern
streetlight,streetlight_000120,sl_000121,0,56.133577,10.191266,/d0/streetlight/sl_000121,"Garden St, North Harbor",North Harbor Central Plaza,North Harbor Downtown,LED,facade,on,ok
streetlight,streetlight_000121,sl_000122,7,56.177878,10.203618,/d7/streetlight/sl_000122,"Pine Rd, Greenfield Park",Greenfield Park Convention Center,Greenfield Park Residential Block,HPS,garden,off,defectiveLamp
streetlight,streetlight_000122,sl_000123,6,56.160567,10.158246,/d6/streetlight/sl_000123,"Spruce St, Old Town Core",Old Town Core Central Plaza,Old Town Core Industrial Zone,MH,park,low,columnIssue
streetlight,streetlight_000123,sl_000124,6,56.154568,10.171156,/d6/streetlight/sl_000124,"Market Rd, Old Town Core",Old Town Core Convention Center,Old Town Core Residential Block,fluorescent,pedestrianPath,bootingUp,brokenLantern
streetlight,streetlight_000124,sl_000125,7,56.198508,10.237693,/d7/streetlight/sl_000125,"Elm St, Greenfield Park",Greenfield Park Waterfront Promenade,Greenfield Park Downtown,LED,playground,on,ok
streetlight,streetlight_000125,sl_000126,0,56.138784,10.177666,/d0/streetlight/sl_000126,"River Rd, North Harbor",North Harbor Clock Tower,North Harbor Commercial Strip,HPS,road,off,defectiveLamp
streetlight,streetlight_000126,sl_000127,1,56.18103,10.24959,/d1/streetlight/sl_000127,"Forest Ave, Westside Heights",Westside Heights Waterfront Promenade,Westside Heights Financial Row,MH,sidewalk,low,columnIssue
streetlight,streetlight_000127,sl_000128,1,56.150214,10.24675,/d1/streetlight/sl_000128,"Maple Blvd, Westside Heights",Westside Heights Sports Arena,Westside Heights Uptown,fluorescent,tunnel,bootingUp,brokenLantern
streetlight,streetlight_000128,sl_000129,0,56.127139,10.208314,/d0/streetlight/sl_000129,"Garden St, North Harbor",North Harbor Shopping Mall,North Harbor Downtown,LED,facade,on,ok
streetlight,streetlight_000129,sl_000130,6,56.148261,10.154832,/d6/streetlight/sl_000130,"Park Rd, Old Town Core",Old Town Core Riverside Park,Old Town Core Residential Block,HPS,garden,off,defectiveLamp
streetlight,streetlight_000130,sl_000131,2,56.193852,10.170843,/d2/streetlight/sl_000131,"River Rd, Eastshore Quarter",Eastshore Quarter Central Plaza,Eastshore Quarter Civic Center,MH,park,low,columnIssue
streetlight,streetlight_000131,sl_000132,1,56.194126,10.241905,/d1/streetlight/sl_000132,"Market Rd, Westside Heights",Westside Heights Harbor Bridge,Westside Heights Residential Block,fluorescent,pedestrianPath,bootingUp,brokenLantern
streetlight,streetlight_000132,sl_000133,4,56.133234,10.157438,/d4/streetlight/sl_000133,"Bridge Ln, Midtown Center",Midtown Center Historic Market,Midtown Center Industrial Zone,LED,playground,on,ok
streetlight,streetlight_000133,sl_000134,6,56.15795,10.150209,/d6/streetlight/sl_000134,"King Blvd, Old Town Core",Old Town Core Historic Market,Old Town Core Commercial Strip,HPS,road,off,defectiveLamp
streetlight,streetlight_000134,sl_000135,0,56.139727,10.220563,/d0/streetlight/sl_000135,"Bridge Ln, North Harbor",North Harbor University Campus,North Harbor Arts Quarter,MH,sidewalk,low,columnIssue
streetlight,streetlight_000135,sl_000136,6,56.159664,10.175652,/d6/streetlight/sl_000136,"Oak Ave, Old Town Core",Old Town Core Sports Arena,Old Town Core Waterfront,fluorescent,tunnel,bootingUp,brokenLantern
streetlight,streetlight_000136,sl_000137,0,56.13838,10.195801,/d0/streetlight/sl_000137,"Market Rd, North Harbor",North Harbor City Library,North Harbor Residential Block,LED,facade,on,ok
streetlight,streetlight_000137,sl_000138,5,56.161856,10.181453,/d5/streetlight/sl_000138,"River Rd, Lakeside District",Lakeside District Town Square,Lakeside District Uptown,HPS,garden,off,defectiveLamp
streetlight,streetlight_000138,sl_000139,4,56.138505,10.175321,/d4/streetlight/sl_000139,"Birch Dr, Midtown Center",Midtown Center Lighthouse,Midtown Center Residential Block,MH,park,low,columnIssue
streetlight,streetlight_000139,sl_000140,5,56.174895,10.184018,/d5/streetlight/sl_000140,"River Rd, Lakeside District",Lakeside District Botanical Garden,Lakeside District Waterfront,fluorescent,pedestrianPath,bootingUp,brokenLantern
streetlight,streetlight_000140,sl_000141,6,56.176796,10.164432,/d6/streetlight/sl_000141,"Summit Way, Old Town Core",Old Town Core Central Plaza,Old Town Core Uptown,LED,playground,on,ok
streetlight,streetlight_000141,sl_000142,5,56.153236,10.218443,/d5/streetlight/sl_000142,"Oak Ave, Lakeside District",Lakeside District Riverside Park,Lakeside District Downtown,HPS,road,off,defectiveLamp
streetlight,streetlight_000142,sl_000143,6,56.159426,10.15538,/d6/streetlight/sl_000143,"Park Rd, Old Town Core",Old Town Core City Library,Old Town Core Uptown,MH,sidewalk,low,columnIssue
streetlight,streetlight_000143,sl_000144,0,56.133089,10.212128,/d0/streetlight/sl_000144,"School St, North Harbor",North Harbor Sports Arena,North Harbor Civic Center,fluorescent,tunnel,bootingUp,brokenLantern
streetlight,streetlight_000144,sl_000145,7,56.17789,10.191611,/d7/streetlight/sl_000145,"Lake Dr, Greenfield Park",Greenfield Park City Hall,Greenfield Park Financial Row,LED,facade,on,ok
streetlight,streetlight_000145,sl_000146,4,56.139981,10.160286,/d4/streetlight/sl_000146,"Pine Rd, Midtown Center",Midtown Center Shopping Mall,Midtown Center Arts Quarter,HPS,garden,off,defectiveLamp
streetlight,streetlight_000146,sl_000147,1,56.168519,10.24529,/d1/streetlight/sl_000147,"Lake Dr, Westside Heights",Westside Heights City Hall,Westside Heights Civic Center,MH,park,low,columnIssue
streetlight,streetlight_000147,sl_000148,7,56.19398,10.189338,/d7/streetlight/sl_000148,"Mill Rd, Greenfield Park",Greenfield Park Sports Arena,Greenfield Park Financial Row,fluorescent,pedestrianPath,bootingUp,brokenLantern
streetlight,streetlight_000148,sl_000149,7,56.178266,10.183299,/d7/streetlight/sl_000149,"Church Ln, Greenfield Park",Greenfield Park Art Museum,Greenfield Park Civic Center,LED,playground,on,ok
streetlight,streetlight_000149,sl_000150,6,56.168855,10.164726,/d6/streetlight/sl_000150,"Summit Way, Old Town Core",Old Town Core Main Station,Old Town Core Uptown,HPS,road,off,defectiveLamp
streetlight,streetlight_000150,sl_000151,1,56.18309,10.233506,/d1/streetlight/sl_000151,"Canal St, Westside Heights",Westside Heights Cultural Center,Westside Heights Civic Center,MH,sidewalk,low,columnIssue
streetlight,streetlight_000151,sl_000152,6,56.168927,10.16312,/d6/streetlight/sl_000152,"Valley Path, Old Town Core",Old Town Core Convention Center,Old Town Core Civic Center,fluorescent,tunnel,bootingUp,brokenLantern
streetlight,streetlight_000152,sl_000153,7,56.18365,10.221067,/d7/streetlight/sl_000153,"Market Rd, Greenfield Park",Greenfield Park Science Center,Greenfield Park Arts Quarter,LED,facade,on,ok
streetlight,streetlight_000153,sl_000154,7,56.177739,10.192655,/d7/streetlight/sl_000154,"Valley Path, Greenfield Park",Greenfield Park Waterfront Promenade,Greenfield Park Commercial Strip,HPS,garden,off,defectiveLamp
streetlight,streetlight_000154,sl_000155,7,56.187777,10.192042,/d7/streetlight/sl_000155,"Birch Dr, Greenfield Park",Greenfield Park Cultural Center,Greenfield Park Industrial Zone,MH,park,low,columnIssue
streetlight,streetlight_000155,sl_000156,0,56.126953,10.208527,/d0/streetlight/sl_000156,"Queen Ave, North Harbor",North Harbor Cultural Center,North Harbor Waterfront,fluorescent,pedestrianPath,bootingUp,brokenLantern
streetlight,streetlight_000156,sl_000157,6,56.147221,10.159638,/d6/streetlight/sl_000157,"Summit Way, Old Town Core",Old Town Core Central Plaza,Old Town Core Residential Block,LED,playground,on,ok
streetlight,streetlight_000157,sl_000158,5,56.157284,10.187476,/d5/streetlight/sl_000158,"King Blvd, Lakeside District",Lakeside District Art Museum,Lakeside District Transit Hub,HPS,road,off,defectiveLamp
streetlight,streetlight_000158,sl_000159,2,56.199056,10.156134,/d2/streetlight/sl_000159,"Cherry Ln, Eastshore Quarter",Eastshore Quarter Main Station,Eastshore Quarter Civic Center,MH,sidewalk,low,columnIssue
streetlight,streetlight_000159,sl_000160,0,56.135573,10.201871,/d0/streetlight/sl_000160,"Summit Way, North Harbor",North Harbor Science Center,North Harbor Waterfront,fluorescent,tunnel,bootingUp,brokenLantern
streetlight,streetlight_000160,sl_000161,7,56.183549,10.210003,/d7/streetlight/sl_000161,"Queen Ave, Greenfield Park",Greenfield Park Science Center,Greenfield Park Industrial Zone,LED,facade,on,ok
streetlight,streetlight_000161,sl_000162,7,56.193031,10.191674,/d7/streetlight/sl_000162,"Bridge Ln, Greenfield Park",Greenfield Park Convention Center,Greenfield Park Uptown,HPS,garden,off,defectiveLamp
streetlight,streetlight_000162,sl_000163,1,56.167069,10.233,/d1/streetlight/sl_000163,"Station Rd, Westside Heights",Westside Heights Lighthouse,Westside Heights Arts Quarter,MH,park,low,columnIssue
streetlight,streetlight_000163,sl_000164,6,56.149611,10.160922,/d6/streetlight/sl_000164,"Valley Path, Old Town Core",Old Town Core City Hall,Old Town Core Residential Block,fluorescent,pedestrianPath,bootingUp,brokenLantern
streetlight,streetlight_000164,sl_000165,5,56.172725,10.188589,/d5/streetlight/sl_000165,"Church Ln, Lakeside District",Lakeside District City Library,Lakeside District Commercial Strip,LED,playground,on,ok
streetlight,streetlight_000165,sl_000166,6,56.172019,10.17376,/d6/streetlight/sl_000166,"Church Ln, Old Town Core",Old Town Core Cathedral,Old Town Core Downtown,HPS,road,off,defectiveLamp
streetlight,streetlight_000166,sl_000167,1,56.162626,10.24402,/d1/streetlight/sl_000167,"Canal St, Westside Heights",Westside Heights Central Plaza,Westside Heights Arts Quarter,MH,sidewalk,low,columnIssue
streetlight,streetlight_000167,sl_000168,4,56.121823,10.166812,/d4/streetlight/sl_000168,"Cherry Ln, Midtown Center",Midtown Center City Hall,Midtown Center Residential Block,fluorescent,tunnel,bootingUp,brokenLantern
streetlight,streetlight_000168,sl_000169,1,56.184893,10.233337,/d1/streetlight/sl_000169,"Ash Ct, Westside Heights",Westside Heights Cathedral,Westside Heights Uptown,LED,facade,on,ok
streetlight,streetlight_000169,sl_000170,6,56.171265,10.164653,/d6/streetlight/sl_000170,"River Rd, Old Town Core",Old Town Core City Library,Old Town Core Waterfront,HPS,garden,off,defectiveLamp
streetlight,streetlight_000170,sl_000171,2,56.197762,10.155666,/d2/streetlight/sl_000171,"School St, Eastshore Quarter",Eastshore Quarter Convention Center,Eastshore Quarter Industrial Zone,MH,park,low,columnIssue
streetlight,streetlight_000171,sl_000172,2,56.178646,10.159419,/d2/streetlight/sl_000172,"Harbor Blvd, Eastshore Quarter",Eastshore Quarter City Library,Eastshore Quarter Financial Row,fluorescent,pedestrianPath,bootingUp,brokenLantern
streetlight,streetlight_000172,sl_000173,5,56.165472,10.210316,/d5/streetlight/sl_000173,"Market Rd, Lakeside District",Lakeside District Central Plaza,Lakeside District Civic Center,LED,playground,on,ok
streetlight,streetlight_000173,sl_000174,5,56.167441,10.188854,/d5/streetlight/sl_000174,"Gate St, Lakeside District",Lakeside District Science Center,Lakeside District Financial Row,HPS,road,off,defectiveLamp
streetlight,streetlight_000174,sl_000175,3,56.133702,10.242973,/d3/streetlight/sl_000175,"Mill Rd, South Hills",South Hills Convention Center,South Hills Downtown,MH,sidewalk,low,columnIssue
streetlight,streetlight_000175,sl_000176,1,56.153383,10.232658,/d1/streetlight/sl_000176,"King Blvd, Westside Heights",Westside Heights Lighthouse,Westside Heights Residential Block,fluorescent,tunnel,bootingUp,brokenLantern
streetlight,streetlight_000176,sl_000177,3,56.124443,10.232784,/d3/streetlight/sl_000177,"Cedar Ln, South Hills",South Hills University Campus,South Hills Waterfront,LED,facade,on,ok
streetlight,streetlight_000177,sl_000178,7,56.178511,10.200777,/d7/streetlight/sl_000178,"Bridge Ln, Greenfield Park",Greenfield Park Art Museum,Greenfield Park Residential Block,HPS,garden,off,defectiveLamp
streetlight,streetlight_000178,sl_000179,7,56.188306,10.194382,/d7/streetlight/sl_000179,"Lake Dr, Greenfield Park",Greenfield Park Historic Market,Greenfield Park Residential Block,MH,park,low,columnIssue
streetlight,streetlight_000179,sl_000180,7,56.192473,10.218655,/d7/streetlight/sl_000180,"Forest Ave, Greenfield Park",Greenfield Park Science Center,Greenfield Park Commercial Strip,fluorescent,pedestrianPath,bootingUp,brokenLantern
streetlight,streetlight_000180,sl_000181,0,56.127219,10.209304,/d0/streetlight/sl_000181,"School St, North Harbor",North Harbor Lighthouse,North Harbor Downtown,LED,playground,on,ok
streetlight,streetlight_000181,sl_000182,0,56.13997,10.184983,/d0/streetlight/sl_000182,"Spruce St, North Harbor",North Harbor Science Center,North Harbor Financial Row,HPS,road,off,defectiveLamp
streetlight,streetlight_000182,sl_000183,4,56.128521,10.168854,/d4/streetlight/sl_000183,"Park Rd, Midtown Center",Midtown Center Convention Center,Midtown Center Transit Hub,MH,sidewalk,low,columnIssue
streetlight,streetlight_000183,sl_000184,1,56.183104,10.232315,/d1/streetlight/sl_000184,"Elm St, Westside Heights",Westside Heights Cathedral,Westside Heights Industrial Zone,fluorescent,tunnel,bootingUp,brokenLantern
streetlight,streetlight_000184,sl_000185,0,56.120793,10.201514,/d0/streetlight/sl_000185,"River Rd, North Harbor",North Harbor Riverside Park,North Harbor Financial Row,LED,facade,on,ok
streetlight,streetlight_000185,sl_000186,2,56.181765,10.168527,/d2/streetlight/sl_000186,"Spruce St, Eastshore Quarter",Eastshore Quarter University Campus,Eastshore Quarter Downtown,HPS,garden,off,defectiveLamp
streetlight,streetlight_000186,sl_000187,6,56.170722,10.173159,/d6/streetlight/sl_000187,"Willow Way, Old Town Core",Old Town Core Historic Market,Old Town Core Downtown,MH,park,low,columnIssue
streetlight,streetlight_000187,sl_000188,0,56.122729,10.217695,/d0/streetlight/sl_000188,"Summit Way, North Harbor",North Harbor Waterfront Promenade,North Harbor Residential Block,fluorescent,pedestrianPath,bootingUp,brokenLantern
streetlight,streetlight_000188,sl_000189,5,56.149054,10.208315,/d5/streetlight/sl_000189,"Pine Rd, Lakeside District",Lakeside District Central Plaza,Lakeside District Industrial Zone,LED,playground,on,ok
streetlight,streetlight_000189,sl_000190,5,56.174086,10.220045,/d5/streetlight/sl_000190,"Church Ln, Lakeside District",Lakeside District Cultural Center,Lakeside District Waterfront,HPS,road,off,defectiveLamp
streetlight,streetlight_000190,sl_000191,5,56.162008,10.178805,/d5/streetlight/sl_000191,"Mill Rd, Lakeside District",Lakeside District Cathedral,Lakeside District Civic Center,MH,sidewalk,low,columnIssue
streetlight,streetlight_000191,sl_000192,1,56.192771,10.240224,/d1/streetlight/sl_000192,"Valley Path, Westside Heights",Westside Heights University Campus,Westside Heights Financial Row,fluorescent,tunnel,bootingUp,brokenLantern
streetlight,streetlight_000192,sl_000193,1,56.168249,10.229065,/d1/streetlight/sl_000193,"Church Ln, Westside Heights",Westside Heights Shopping Mall,Westside Heights Arts Quarter,LED,facade,on,ok
streetlight,streetlight_000193,sl_000194,6,56.159847,10.16882,/d6/streetlight/sl_000194,"Bridge Ln, Old Town Core",Old Town Core Cultural Center,Old Town Core Arts Quarter,HPS,garden,off,defectiveLamp
streetlight,streetlight_000194,sl_000195,7,56.177973,10.215773,/d7/streetlight/sl_000195,"Bridge Ln, Greenfield Park",Greenfield Park City Hall,Greenfield Park Commercial Strip,MH,park,low,columnIssue
streetlight,streetlight_000195,sl_000196,4,56.137637,10.176785,/d4/streetlight/sl_000196,"Mill Rd, Midtown Center",Midtown Center Shopping Mall,Midtown Center Industrial Zone,fluorescent,pedestrianPath,bootingUp,brokenLantern
streetlight,streetlight_000196,sl_000197,5,56.151602,10.210695,/d5/streetlight/sl_000197,"Gate St, Lakeside District",Lakeside District Harbor Bridge,Lakeside District Civic Center,LED,playground,on,ok
streetlight,streetlight_000197,sl_000198,1,56.142599,10.241989,/d1/streetlight/sl_000198,"Mill Rd, Westside Heights",Westside Heights Science Center,Westside Heights Residential Block,HPS,road,off,defectiveLamp
streetlight,streetlight_000198,sl_000199,6,56.16687,10.172013,/d6/streetlight/sl_000199,"Market Rd, Old Town Core",Old Town Core Harbor Bridge,Old Town Core Financial Row,MH,sidewalk,low,columnIssue
streetlight,streetlight_000199,sl_000200,5,56.174417,10.190284,/d5/streetlight/sl_000200,"Maple Blvd, Lakeside District",Lakeside District Botanical Garden,Lakeside District Downtown,fluorescent,tunnel,bootingUp,brokenLantern
streetlight,streetlight_000200,sl_000201,1,56.185889,10.239294,/d1/streetlight/sl_000201,"Cedar Ln, Westside Heights",Westside Heights Harbor Bridge,Westside Heights Industrial Zone,LED,facade,on,ok
streetlight,streetlight_000201,sl_000202,2,56.192862,10.15566,/d2/streetlight/sl_000202,"Willow Way, Eastshore Quarter",Eastshore Quarter Harbor Bridge,Eastshore Quarter Industrial Zone,HPS,garden,off,defectiveLamp
streetlight,streetlight_000202,sl_000203,0,56.12446,10.217784,/d0/streetlight/sl_000203,"Station Rd, North Harbor",North Harbor Shopping Mall,North Harbor Transit Hub,MH,park,low,columnIssue
streetlight,streetlight_000203,sl_000204,1,56.185627,10.234336,/d1/streetlight/sl_000204,"Mill Rd, Westside Heights",Westside Heights Clock Tower,Westside Heights Residential Block,fluorescent,pedestrianPath,bootingUp,brokenLantern
streetlight,streetlight_000204,sl_000205,6,56.165101,10.151365,/d6/streetlight/sl_000205,"Gate St, Old Town Core",Old Town Core Harbor Bridge,Old Town Core Industrial Zone,LED,playground,on,ok
streetlight,streetlight_000205,sl_000206,1,56.198807,10.248693,/d1/streetlight/sl_000206,"Pine Rd, Westside Heights",Westside Heights City Hall,Westside Heights Transit Hub,HPS,road,off,defectiveLamp
streetlight,streetlight_000206,sl_000207,4,56.135832,10.153929,/d4/streetlight/sl_000207,"Church Ln, Midtown Center",Midtown Center Cultural Center,Midtown Center Civic Center,MH,sidewalk,low,columnIssue
streetlight,streetlight_000207,sl_000208,5,56.173063,10.179029,/d5/streetlight/sl_000208,"Harbor Blvd, Lakeside District",Lakeside District Shopping Mall,Lakeside District Downtown,fluorescent,tunnel,bootingUp,brokenLantern
streetlight,streetlight_000208,sl_000209,1,56.18319,10.229008,/d1/streetlight/sl_000209,"Castle Rd, Westside Heights",Westside Heights Waterfront Promenade,Westside Heights Civic Center,LED,facade,on,ok
streetlight,streetlight_000209,sl_000210,2,56.187519,10.171783,/d2/streetlight/sl_000210,"Canal St, Eastshore Quarter",Eastshore Quarter Riverside Park,Eastshore Quarter Waterfront,HPS,garden,off,defectiveLamp
streetlight,streetlight_000210,sl_000211,7,56.190997,10.231925,/d7/streetlight/sl_000211,"Willow Way, Greenfield Park",Greenfield Park Sports Arena,Greenfield Park Arts Quarter,MH,park,low,columnIssue
streetlight,streetlight_000211,sl_000212,1,56.184229,10.232283,/d1/streetlight/sl_000212,"Canal St, Westside Heights",Westside Heights Waterfront Promenade,Westside Heights Waterfront,fluorescent,pedestrianPath,bootingUp,brokenLantern
streetlight,streetlight_000212,sl_000213,1,56.17695,10.235355,/d1/streetlight/sl_000213,"Cherry Ln, Westside Heights",Westside Heights Shopping Mall,Westside Heights Transit Hub,LED,playground,on,ok
streetlight,streetlight_000213,sl_000214,5,56.151276,10.198268,/d5/streetlight/sl_000214,"Castle Rd, Lakeside District",Lakeside District City Library,Lakeside District Transit Hub,HPS,road,off,defectiveLamp
streetlight,streetlight_000214,sl_000215,5,56.14911,10.221262,/d5/streetlight/sl_000215,"Willow Way, Lakeside District",Lakeside District Cathedral,Lakeside District Waterfront,MH,sidewalk,low,columnIssue
streetlight,streetlight_000215,sl_000216,6,56.171941,10.177012,/d6/streetlight/sl_000216,"River Rd, Old Town Core",Old Town Core Main Station,Old Town Core Civic Center,fluorescent,tunnel,bootingUp,brokenLantern
streetlight,streetlight_000216,sl_000217,6,56.146887,10.152755,/d6/streetlight/sl_000217,"Harbor Blvd, Old Town Core",Old Town Core Historic Market,Old Town Core Commercial Strip,LED,facade,on,ok
streetlight,streetlight_000217,sl_000218,7,56.183626,10.225321,/d7/streetlight/sl_000218,"River Rd, Greenfield Park",Greenfield Park University Campus,Greenfield Park Residential Block,HPS,garden,off,defectiveLamp
streetlight,streetlight_000218,sl_000219,4,56.121082,10.176078,/d4/streetlight/sl_000219,"Valley Path, Midtown Center",Midtown Center Cultural Center,Midtown Center Financial Row,MH,park,low,columnIssue
streetlight,streetlight_000219,sl_000220,4,56.121988,10.16255,/d4/streetlight/sl_000220,"Spruce St, Midtown Center",Midtown Center Central Plaza,Midtown Center Uptown,fluorescent,pedestrianPath,bootingUp,brokenLantern
streetlight,streetlight_000220,sl_000221,5,56.151341,10.201452,/d5/streetlight/sl_000221,"Market Rd, Lakeside District",Lakeside District Central Plaza,Lakeside District Financial Row,LED,playground,on,ok
streetlight,streetlight_000221,sl_000222,3,56.130011,10.229318,/d3/streetlight/sl_000222,"Willow Way, South Hills",South Hills Harbor Bridge,South Hills Downtown,HPS,road,off,defectiveLamp
streetlight,streetlight_000222,sl_000223,1,56.185836,10.238184,/d1/streetlight/sl_000223,"Harbor Blvd, Westside Heights",Westside Heights Town Square,Westside Heights Arts Quarter,MH,sidewalk,low,columnIssue
streetlight,streetlight_000223,sl_000224,4,56.136646,10.172222,/d4/streetlight/sl_000224,"Summit Way, Midtown Center",Midtown Center University Campus,Midtown Center Uptown,fluorescent,tunnel,bootingUp,brokenLantern
streetlight,streetlight_000224,sl_000225,4,56.123135,10.155695,/d4/streetlight/sl_000225,"Market Rd, Midtown Center",Midtown Center Cultural Center,Midtown Center Waterfront,LED,facade,on,ok
streetlight,streetlight_000225,sl_000226,4,56.127781,10.171072,/d4/streetlight/sl_000226,"Oak Ave, Midtown Center",Midtown Center Sports Arena,Midtown Center Commercial Strip,HPS,garden,off,defectiveLamp
streetlight,streetlight_000226,sl_000227,3,56.12522,10.237725,/d3/streetlight/sl_000227,"Forest Ave, South Hills",South Hills Clock Tower,South Hills Waterfront,MH,park,low,columnIssue
streetlight,streetlight_000227,sl_000228,4,56.127758,10.177207,/d4/streetlight/sl_000228,"Elm St, Midtown Center",Midtown Center Shopping Mall,Midtown Center Arts Quarter,fluorescent,pedestrianPath,bootingUp,brokenLantern
streetlight,streetlight_000228,sl_000229,0,56.132204,10.1986,/d0/streetlight/sl_000229,"Market Rd, North Harbor",North Harbor Waterfront Promenade,North Harbor Waterfront,LED,playground,on,ok
streetlight,streetlight_000229,sl_000230,1,56.156214,10.239646,/d1/streetlight/sl_000230,"Market Rd, Westside Heights",Westside Heights Riverside Park,Westside Heights Arts Quarter,HPS,road,off,defectiveLamp
streetlight,streetlight_000230,sl_000231,1,56.167787,10.238028,/d1/streetlight/sl_000231,"Garden St, Westside Heights",Westside Heights Harbor Bridge,Westside Heights Uptown,MH,sidewalk,low,columnIssue
streetlight,streetlight_000231,sl_000232,5,56.162689,10.191646,/d5/streetlight/sl_000232,"Elm St, Lakeside District",Lakeside District Town Square,Lakeside District Civic Center,fluorescent,tunnel,bootingUp,brokenLantern
streetlight,streetlight_000232,sl_000233,7,56.199666,10.210227,/d7/streetlight/sl_000233,"Castle Rd, Greenfield Park",Greenfield Park Sports Arena,Greenfield Park Waterfront,LED,facade,on,ok
streetlight,streetlight_000233,sl_000234,1,56.168757,10.244234,/d1/streetlight/sl_000234,"Maple Blvd, Westside Heights",Westside Heights Botanical Garden,Westside Heights Uptown,HPS,garden,off,defectiveLamp
streetlight,streetlight_000234,sl_000235,6,56.154875,10.160792,/d6/streetlight/sl_000235,"Pine Rd, Old Town Core",Old Town Core Main Station,Old Town Core Waterfront,MH,park,low,columnIssue
streetlight,streetlight_000235,sl_000236,6,56.153578,10.1729,/d6/streetlight/sl_000236,"Garden St, Old Town Core",Old Town Core Science Center,Old Town Core Commercial Strip,fluorescent,pedestrianPath,bootingUp,brokenLantern
streetlight,streetlight_000236,sl_000237,5,56.143487,10.1836,/d5/streetlight/sl_000237,"Harbor Blvd, Lakeside District",Lakeside District Waterfront Promenade,Lakeside District Financial Row,LED,playground,on,ok
streetlight,streetlight_000237,sl_000238,3,56.140092,10.233668,/d3/streetlight/sl_000238,"River Rd, South Hills",South Hills Historic Market,South Hills Commercial Strip,HPS,road,off,defectiveLamp
streetlight,streetlight_000238,sl_000239,2,56.177958,10.152437,/d2/streetlight/sl_000239,"Bridge Ln, Eastshore Quarter",Eastshore Quarter Clock Tower,Eastshore Quarter Residential Block,MH,sidewalk,low,columnIssue
streetlight,streetlight_000239,sl_000240,1,56.156565,10.235607,/d1/streetlight/sl_000240,"Mill Rd, Westside Heights",Westside Heights Science Center,Westside Heights Arts Quarter,fluorescent,tunnel,bootingUp,brokenLantern
streetlight,streetlight_000240,sl_000241,1,56.167121,10.244992,/d1/streetlight/sl_000241,"Cherry Ln, Westside Heights",Westside Heights Town Square,Westside Heights Residential Block,LED,facade,on,ok
streetlight,streetlight_000241,sl_000242,7,56.196873,10.200556,/d7/streetlight/sl_000242,"Gate St, Greenfield Park",Greenfield Park Art Museum,Greenfield Park Uptown,HPS,garden,off,defectiveLamp
streetlight,streetlight_000242,sl_000243,1,56.186909,10.231739,/d1/streetlight/sl_000243,"Elm St, Westside Heights",Westside Heights City Hall,Westside Heights Waterfront,MH,park,low,columnIssue
streetlight,streetlight_000243,sl_000244,6,56.154152,10.15629,/d6/streetlight/sl_000244,"Gate St, Old Town Core",Old Town Core Lighthouse,Old Town Core Uptown,fluorescent,pedestrianPath,bootingUp,brokenLantern
streetlight,streetlight_000244,sl_000245,6,56.174773,10.17219,/d6/streetlight/sl_000245,"Garden St, Old Town Core",Old Town Core Riverside Park,Old Town Core Industrial Zone,LED,playground,on,ok
streetlight,streetlight_000245,sl_000246,0,56.142277,10.214735,/d0/streetlight/sl_000246,"Canal St, North Harbor",North Harbor Waterfront Promenade,North Harbor Industrial Zone,HPS,road,off,defectiveLamp
streetlight,streetlight_000246,sl_000247,1,56.158741,10.228032,/d1/streetlight/sl_000247,"Oak Ave, Westside Heights",Westside Heights University Campus,Westside Heights Waterfront,MH,sidewalk,low,columnIssue
streetlight,streetlight_000247,sl_000248,1,56.182135,10.235678,/d1/streetlight/sl_000248,"Valley Path, Westside Heights",Westside Heights Historic Market,Westside Heights Uptown,fluorescent,tunnel,bootingUp,brokenLantern
streetlight,streetlight_000248,sl_000249,2,56.17812,10.167918,/d2/streetlight/sl_000249,"Tower Ln, Eastshore Quarter",Eastshore Quarter Botanical Garden,Eastshore Quarter Civic Center,LED,facade,on,ok
streetlight,streetlight_000249,sl_000250,4,56.140883,10.171894,/d4/streetlight/sl_000250,"Spruce St, Midtown Center",Midtown Center Cathedral,Midtown Center Transit Hub,HPS,garden,off,defectiveLamp
streetlight,streetlight_000250,sl_000251,5,56.175415,10.198494,/d5/streetlight/sl_000251,"Pine Rd, Lakeside District",Lakeside District Historic Market,Lakeside District Arts Quarter,MH,park,low,columnIssue
streetlight,streetlight_000251,sl_000252,5,56.176572,10.219762,/d5/streetlight/sl_000252,"Willow Way, Lakeside District",Lakeside District Central Plaza,Lakeside District Financial Row,fluorescent,pedestrianPath,bootingUp,brokenLantern
streetlight,streetlight_000252,sl_000253,3,56.1401,10.243998,/d3/streetlight/sl_000253,"Park Rd, South Hills",South Hills Cathedral,South Hills Commercial Strip,LED,playground,on,ok
streetlight,streetlight_000253,sl_000254,6,56.168876,10.176886,/d6/streetlight/sl_000254,"Pine Rd, Old Town Core",Old Town Core Clock Tower,Old Town Core Civic Center,HPS,road,off,defectiveLamp
streetlight,streetlight_000254,sl_000255,5,56.174252,10.183633,/d5/streetlight/sl_000255,"King Blvd, Lakeside District",Lakeside District Shopping Mall,Lakeside District Industrial Zone,MH,sidewalk,low,columnIssue
streetlight,streetlight_000255,sl_000256,1,56.183767,10.236502,/d1/streetlight/sl_000256,"Garden St, Westside Heights",Westside Heights Clock Tower,Westside Heights Commercial Strip,fluorescent,tunnel,bootingUp,brokenLantern
streetlight,streetlight_000256,sl_000257,1,56.163545,10.238078,/d1/streetlight/sl_000257,"River Rd, Westside Heights",Westside Heights Science Center,Westside Heights Downtown,LED,facade,on,ok
streetlight,streetlight_000257,sl_000258,6,56.154476,10.159176,/d6/streetlight/sl_000258,"Pine Rd, Old Town Core",Old Town Core City Library,Old Town Core Waterfront,HPS,garden,off,defectiveLamp
streetlight,streetlight_000258,sl_000259,5,56.159014,10.202182,/d5/streetlight/sl_000259,"Spruce St, Lakeside District",Lakeside District Shopping Mall,Lakeside District Downtown,MH,park,low,columnIssue
streetlight,streetlight_000259,sl_000260,5,56.162805,10.201394,/d5/streetlight/sl_000260,"Pine Rd, Lakeside District",Lakeside District University Campus,Lakeside District Arts Quarter,fluorescent,pedestrianPath,bootingUp,brokenLantern
streetlight,streetlight_000260,sl_000261,0,56.127232,10.200772,/d0/streetlight/sl_000261,"Canal St, North Harbor",North Harbor Clock Tower,North Harbor Civic Center,LED,playground,on,ok
streetlight,streetlight_000261,sl_000262,5,56.147451,10.190592,/d5/streetlight/sl_000262,"Gate St, Lakeside District",Lakeside District Harbor Bridge,Lakeside District Downtown,HPS,road,off,defectiveLamp
streetlight,streetlight_000262,sl_000263,1,56.148267,10.249559,/d1/streetlight/sl_000263,"Mill Rd, Westside Heights",Westside Heights City Hall,Westside Heights Uptown,MH,sidewalk,low,columnIssue
streetlight,streetlight_000263,sl_000264,5,56.14783,10.208101,/d5/streetlight/sl_000264,"Ash Ct, Lakeside District",Lakeside District City Hall,Lakeside District Residential Block,fluorescent,tunnel,bootingUp,brokenLantern
streetlight,streetlight_000264,sl_000265,4,56.122782,10.164197,/d4/streetlight/sl_000265,"School St, Midtown Center",Midtown Center Historic Market,Midtown Center Civic Center,LED,facade,on,ok
streetlight,streetlight_000265,sl_000266,1,56.170949,10.224778,/d1/streetlight/sl_000266,"River Rd, Westside Heights",Westside Heights Lighthouse,Westside Heights Waterfront,HPS,garden,off,defectiveLamp
streetlight,streetlight_000266,sl_000267,1,56.190369,10.242541,/d1/streetlight/sl_000267,"Lake Dr, Westside Heights",Westside Heights Waterfront Promenade,Westside Heights Civic Center,MH,park,low,columnIssue
streetlight,streetlight_000267,sl_000268,2,56.186962,10.162004,/d2/streetlight/sl_000268,"Pine Rd, Eastshore Quarter",Eastshore Quarter Convention Center,Eastshore Quarter Transit Hub,fluorescent,pedestrianPath,bootingUp,brokenLantern
streetlight,streetlight_000268,sl_000269,1,56.162491,10.243006,/d1/streetlight/sl_000269,"School St, Westside Heights",Westside Heights City Library,Westside Heights Industrial Zone,LED,playground,on,ok
streetlight,streetlight_000269,sl_000270,5,56.171203,10.202009,/d5/streetlight/sl_000270,"Maple Blvd, Lakeside District",Lakeside District City Library,Lakeside District Arts Quarter,HPS,road,off,defectiveLamp
streetlight,streetlight_000270,sl_000271,6,56.14442,10.172684,/d6/streetlight/sl_000271,"Harbor Blvd, Old Town Core",Old Town Core Science Center,Old Town Core Residential Block,MH,sidewalk,low,columnIssue
streetlight,streetlight_000271,sl_000272,7,56.194103,10.208502,/d7/streetlight/sl_000272,"Cherry Ln, Greenfield Park",Greenfield Park Convention Center,Greenfield Park Residential Block,fluorescent,tunnel,bootingUp,brokenLantern
streetlight,streetlight_000272,sl_000273,6,56.165384,10.175621,/d6/streetlight/sl_000273,"Pine Rd, Old Town Core",Old Town Core Clock Tower,Old Town Core Residential Block,LED,facade,on,ok
streetlight,streetlight_000273,sl_000274,1,56.177748,10.222838,/d1/streetlight/sl_000274,"Cherry Ln, Westside Heights",Westside Heights Central Plaza,Westside Heights Arts Quarter,HPS,garden,off,defectiveLamp
streetlight,streetlight_000274,sl_000275,5,56.177469,10.209379,/d5/streetlight/sl_000275,"Cherry Ln, Lakeside District",Lakeside District Harbor Bridge,Lakeside District Arts Quarter,MH,park,low,columnIssue
streetlight,streetlight_000275,sl_000276,4,56.125726,10.177433,/d4/streetlight/sl_000276,"Queen Ave, Midtown Center",Midtown Center Waterfront Promenade,Midtown Center Transit Hub,fluorescent,pedestrianPath,bootingUp,brokenLantern
streetlight,streetlight_000276,sl_000277,6,56.172084,10.176247,/d6/streetlight/sl_000277,"Bridge Ln, Old Town Core",Old Town Core City Hall,Old Town Core Waterfront,LED,playground,on,ok
streetlight,streetlight_000277,sl_000278,0,56.132214,10.218589,/d0/streetlight/sl_000278,"Queen Ave, North Harbor",North Harbor Town Square,North Harbor Waterfront,HPS,road,off,defectiveLamp
streetlight,streetlight_000278,sl_000279,5,56.159019,10.199156,/d5/streetlight/sl_000279,"Summit Way, Lakeside District",Lakeside District Science Center,Lakeside District Commercial Strip,MH,sidewalk,low,columnIssue
streetlight,streetlight_000279,sl_000280,5,56.174904,10.210181,/d5/streetlight/sl_000280,"Valley Path, Lakeside District",Lakeside District Central Plaza,Lakeside District Arts Quarter,fluorescent,tunnel,bootingUp,brokenLantern
streetlight,streetlight_000280,sl_000281,0,56.131023,10.207611,/d0/streetlight/sl_000281,"Oak Ave, North Harbor",North Harbor Art Museum,North Harbor Arts Quarter,LED,facade,on,ok
streetlight,streetlight_000281,sl_000282,6,56.174076,10.173179,/d6/streetlight/sl_000282,"Bridge Ln, Old Town Core",Old Town Core Shopping Mall,Old Town Core Financial Row,HPS,garden,off,defectiveLamp
streetlight,streetlight_000282,sl_000283,3,56.129585,10.24771,/d3/streetlight/sl_000283,"Valley Path, South Hills",South Hills Botanical Garden,South Hills Arts Quarter,MH,park,low,columnIssue
streetlight,streetlight_000283,sl_000284,7,56.180006,10.215688,/d7/streetlight/sl_000284,"King Blvd, Greenfield Park",Greenfield Park Sports Arena,Greenfield Park Financial Row,fluorescent,pedestrianPath,bootingUp,brokenLantern
streetlight,streetlight_000284,sl_000285,7,56.185557,10.187997,/d7/streetlight/sl_000285,"River Rd, Greenfield Park",Greenfield Park Sports Arena,Greenfield Park Industrial Zone,LED,playground,on,ok
streetlight,streetlight_000285,sl_000286,6,56.172553,10.17152,/d6/streetlight/sl_000286,"Church Ln, Old Town Core",Old Town Core Town Square,Old Town Core Transit Hub,HPS,road,off,defectiveLamp
streetlight,streetlight_000286,sl_000287,5,56.158145,10.186689,/d5/streetlight/sl_000287,"River Rd, Lakeside District",Lakeside District City Library,Lakeside District Uptown,MH,sidewalk,low,columnIssue
streetlight,streetlight_000287,sl_000288,3,56.12165,10.243848,/d3/streetlight/sl_000288,"Summit Way, South Hills",South Hills University Campus,South Hills Industrial Zone,fluorescent,tunnel,bootingUp,brokenLantern
streetlight,streetlight_000288,sl_000289,0,56.137599,10.222207,/d0/streetlight/sl_000289,"Canal St, North Harbor",North Harbor Cathedral,North Harbor Financial Row,LED,facade,on,ok
streetlight,streetlight_000289,sl_000290,7,56.194796,10.194694,/d7/streetlight/sl_000290,"School St, Greenfield Park",Greenfield Park Convention Center,Greenfield Park Uptown,HPS,garden,off,defectiveLamp
streetlight,streetlight_000290,sl_000291,5,56.165804,10.207981,/d5/streetlight/sl_000291,"Canal St, Lakeside District",Lakeside District Riverside Park,Lakeside District Residential Block,MH,park,low,columnIssue
streetlight,streetlight_000291,sl_000292,3,56.139943,10.234402,/d3/streetlight/sl_000292,"Forest Ave, South Hills",South Hills Riverside Park,South Hills Financial Row,fluorescent,pedestrianPath,bootingUp,brokenLantern
streetlight,streetlight_000292,sl_000293,1,56.197407,10.245406,/d1/streetlight/sl_000293,"Forest Ave, Westside Heights",Westside Heights Sports Arena,Westside Heights Downtown,LED,playground,on,ok
streetlight,streetlight_000293,sl_000294,5,56.159164,10.208385,/d5/streetlight/sl_000294,"Valley Path, Lakeside District",Lakeside District Central Plaza,Lakeside District Waterfront,HPS,road,off,defectiveLamp
streetlight,streetlight_000294,sl_000295,6,56.155658,10.164061,/d6/streetlight/sl_000295,"Canal St, Old Town Core",Old Town Core Central Plaza,Old Town Core Commercial Strip,MH,sidewalk,low,columnIssue
streetlight,streetlight_000295,sl_000296,7,56.187415,10.209744,/d7/streetlight/sl_000296,"Willow Way, Greenfield Park",Greenfield Park Shopping Mall,Greenfield Park Financial Row,fluorescent,tunnel,bootingUp,brokenLantern
streetlight,streetlight_000296,sl_000297,1,56.159557,10.243776,/d1/streetlight/sl_000297,"Pine Rd, Westside Heights",Westside Heights Lighthouse,Westside Heights Transit Hub,LED,facade,on,ok
streetlight,streetlight_000297,sl_000298,4,56.129069,10.169342,/d4/streetlight/sl_000298,"Ash Ct, Midtown Center",Midtown Center Sports Arena,Midtown Center Financial Row,HPS,garden,off,defectiveLamp
streetlight,streetlight_000298,sl_000299,7,56.179061,10.182415,/d7/streetlight/sl_000299,"Ash Ct, Greenfield Park",Greenfield Park Riverside Park,Greenfield Park Waterfront,MH,park,low,columnIssue
streetlight,streetlight_000299,sl_000300,5,56.163895,10.202772,/d5/streetlight/sl_000300,"Tower Ln, Lakeside District",Lakeside District Shopping Mall,Lakeside District Civic Center,fluorescent,pedestrianPath,bootingUp,brokenLantern
streetlight,streetlight_000300,sl_000301,0,56.138163,10.202012,/d0/streetlight/sl_000301,"Park Rd, North Harbor",North Harbor Cathedral,North Harbor Residential Block,LED,playground,on,ok
streetlight,streetlight_000301,sl_000302,7,56.195132,10.191898,/d7/streetlight/sl_000302,"Willow Way, Greenfield Park",Greenfield Park Town Square,Greenfield Park Commercial Strip,HPS,road,off,defectiveLamp
streetlight,streetlight_000302,sl_000303,0,56.137263,10.202415,/d0/streetlight/sl_000303,"Church Ln, North Harbor",North Harbor City Library,North Harbor Waterfront,MH,sidewalk,low,columnIssue
streetlight,streetlight_000303,sl_000304,5,56.158459,10.194667,/d5/streetlight/sl_000304,"Bridge Ln, Lakeside District",Lakeside District Waterfront Promenade,Lakeside District Uptown,fluorescent,tunnel,bootingUp,brokenLantern
streetlight,streetlight_000304,sl_000305,5,56.147664,10.188359,/d5/streetlight/sl_000305,"King Blvd, Lakeside District",Lakeside District Lighthouse,Lakeside District Arts Quarter,LED,facade,on,ok
streetlight,streetlight_000305,sl_000306,4,56.124532,10.150468,/d4/streetlight/sl_000306,"River Rd, Midtown Center",Midtown Center Cathedral,Midtown Center Industrial Zone,HPS,garden,off,defectiveLamp
streetlight,streetlight_000306,sl_000307,7,56.187891,10.185258,/d7/streetlight/sl_000307,"Pine Rd, Greenfield Park",Greenfield Park Lighthouse,Greenfield Park Waterfront,MH,park,low,columnIssue
streetlight,streetlight_000307,sl_000308,1,56.17715,10.247895,/d1/streetlight/sl_000308,"Forest Ave, Westside Heights",Westside Heights Botanical Garden,Westside Heights Residential Block,fluorescent,pedestrianPath,bootingUp,brokenLantern
streetlight,streetlight_000308,sl_000309,7,56.191633,10.186438,/d7/streetlight/sl_000309,"Queen Ave, Greenfield Park",Greenfield Park Central Plaza,Greenfield Park Transit Hub,LED,playground,on,ok
streetlight,streetlight_000309,sl_000310,7,56.198126,10.178922,/d7/streetlight/sl_000310,"Willow Way, Greenfield Park",Greenfield Park Cathedral,Greenfield Park Waterfront,HPS,road,off,defectiveLamp
streetlight,streetlight_000310,sl_000311,5,56.170826,10.193838,/d5/streetlight/sl_000311,"Summit Way, Lakeside District",Lakeside District Town Square,Lakeside District Arts Quarter,MH,sidewalk,low,columnIssue
streetlight,streetlight_000311,sl_000312,0,56.124092,10.180905,/d0/streetlight/sl_000312,"Mill Rd, North Harbor",North Harbor Clock Tower,North Harbor Uptown,fluorescent,tunnel,bootingUp,brokenLantern
streetlight,streetlight_000312,sl_000313,7,56.194502,10.188148,/d7/streetlight/sl_000313,"Valley Path, Greenfield Park",Greenfield Park Town Square,Greenfield Park Waterfront,LED,facade,on,ok
streetlight,streetlight_000313,sl_000314,2,56.198765,10.168121,/d2/streetlight/sl_000314,"Willow Way, Eastshore Quarter",Eastshore Quarter Cathedral,Eastshore Quarter Residential Block,HPS,garden,off,defectiveLamp
streetlight,streetlight_000314,sl_000315,2,56.179626,10.176085,/d2/streetlight/sl_000315,"King Blvd, Eastshore Quarter",Eastshore Quarter Town Square,Eastshore Quarter Commercial Strip,MH,park,low,columnIssue
streetlight,streetlight_000315,sl_000316,6,56.170205,10.153506,/d6/streetlight/sl_000316,"Lake Dr, Old Town Core",Old Town Core Harbor Bridge,Old Town Core Uptown,fluorescent,pedestrianPath,bootingUp,brokenLantern
streetlight,streetlight_000316,sl_000317,2,56.178983,10.16785,/d2/streetlight/sl_000317,"Castle Rd, Eastshore Quarter",Eastshore Quarter Harbor Bridge,Eastshore Quarter Uptown,LED,playground,on,ok
streetlight,streetlight_000317,sl_000318,5,56.169272,10.194352,/d5/streetlight/sl_000318,"Gate St, Lakeside District",Lakeside District Art Museum,Lakeside District Residential Block,HPS,road,off,defectiveLamp
streetlight,streetlight_000318,sl_000319,7,56.198926,10.236745,/d7/streetlight/sl_000319,"Harbor Blvd, Greenfield Park",Greenfield Park Waterfront Promenade,Greenfield Park Industrial Zone,MH,sidewalk,low,columnIssue
streetlight,streetlight_000319,sl_000320,0,56.1399,10.189243,/d0/streetlight/sl_000320,"Garden St, North Harbor",North Harbor Central Plaza,North Harbor Transit Hub,fluorescent,tunnel,bootingUp,brokenLantern
streetlight,streetlight_000320,sl_000321,1,56.158787,10.230535,/d1/streetlight/sl_000321,"Park Rd, Westside Heights",Westside Heights City Library,Westside Heights Uptown,LED,facade,on,ok
streetlight,streetlight_000321,sl_000322,0,56.135605,10.197434,/d0/streetlight/sl_000322,"Queen Ave, North Harbor",North Harbor Botanical Garden,North Harbor Civic Center,HPS,garden,off,defectiveLamp
streetlight,streetlight_000322,sl_000323,5,56.154197,10.220376,/d5/streetlight/sl_000323,"Tower Ln, Lakeside District",Lakeside District City Library,Lakeside District Waterfront,MH,park,low,columnIssue
streetlight,streetlight_000323,sl_000324,7,56.192671,10.201144,/d7/streetlight/sl_000324,"River Rd, Greenfield Park",Greenfield Park Clock Tower,Greenfield Park Transit Hub,fluorescent,pedestrianPath,bootingUp,brokenLantern
streetlight,streetlight_000324,sl_000325,7,56.189498,10.192274,/d7/streetlight/sl_000325,"Forest Ave, Greenfield Park",Greenfield Park Harbor Bridge,Greenfield Park Civic Center,LED,playground,on,ok
streetlight,streetlight_000325,sl_000326,2,56.186535,10.151891,/d2/streetlight/sl_000326,"Spruce St, Eastshore Quarter",Eastshore Quarter Main Station,Eastshore Quarter Residential Block,HPS,road,off,defectiveLamp
streetlight,streetlight_000326,sl_000327,4,56.129102,10.157655,/d4/streetlight/sl_000327,"Elm St, Midtown Center",Midtown Center Clock Tower,Midtown Center Residential Block,MH,sidewalk,low,columnIssue
streetlight,streetlight_000327,sl_000328,5,56.169754,10.20884,/d5/streetlight/sl_000328,"Market Rd, Lakeside District",Lakeside District Main Station,Lakeside District Commercial Strip,fluorescent,tunnel,bootingUp,brokenLantern
streetlight,streetlight_000328,sl_000329,5,56.153698,10.216732,/d5/streetlight/sl_000329,"Castle Rd, Lakeside District",Lakeside District Main Station,Lakeside District Waterfront,LED,facade,on,ok
streetlight,streetlight_000329,sl_000330,6,56.144318,10.166908,/d6/streetlight/sl_000330,"Elm St, Old Town Core",Old Town Core Riverside Park,Old Town Core Transit Hub,HPS,garden,off,defectiveLamp
streetlight,streetlight_000330,sl_000331,7,56.195841,10.228053,/d7/streetlight/sl_000331,"Maple Blvd, Greenfield Park",Greenfield Park City Hall,Greenfield Park Waterfront,MH,park,low,columnIssue
streetlight,streetlight_000331,sl_000332,7,56.198597,10.224551,/d7/streetlight/sl_000332,"Summit Way, Greenfield Park",Greenfield Park Waterfront Promenade,Greenfield Park Financial Row,fluorescent,pedestrianPath,bootingUp,brokenLantern
streetlight,streetlight_000332,sl_000333,1,56.170147,10.246679,/d1/streetlight/sl_000333,"Birch Dr, Westside Heights",Westside Heights Town Square,Westside Heights Civic Center,LED,playground,on,ok
streetlight,streetlight_000333,sl_000334,1,56.142679,10.229446,/d1/streetlight/sl_000334,"Castle Rd, Westside Heights",Westside Heights Science Center,Westside Heights Financial Row,HPS,road,off,defectiveLamp
streetlight,streetlight_000334,sl_000335,7,56.199995,10.225972,/d7/streetlight/sl_000335,"King Blvd, Greenfield Park",Greenfield Park Cultural Center,Greenfield Park Waterfront,MH,sidewalk,low,columnIssue
streetlight,streetlight_000335,sl_000336,1,56.174574,10.242572,/d1/streetlight/sl_000336,"Church Ln, Westside Heights",Westside Heights Lighthouse,Westside Heights Downtown,fluorescent,tunnel,bootingUp,brokenLantern
streetlight,streetlight_000336,sl_000337,7,56.188003,10.190287,/d7/streetlight/sl_000337,"Cedar Ln, Greenfield Park",Greenfield Park Town Square,Greenfield Park Waterfront,LED,facade,on,ok
streetlight,streetlight_000337,sl_000338,7,56.195756,10.230491,/d7/streetlight/sl_000338,"Tower Ln, Greenfield Park",Greenfield Park Shopping Mall,Greenfield Park Industrial Zone,HPS,garden,off,defectiveLamp
streetlight,streetlight_000338,sl_000339,7,56.193378,10.20062,/d7/streetlight/sl_000339,"Spruce St, Greenfield Park",Greenfield Park Harbor Bridge,Greenfield Park Uptown,MH,park,low,columnIssue
streetlight,streetlight_000339,sl_000340,7,56.195665,10.18757,/d7/streetlight/sl_000340,"Tower Ln, Greenfield Park",Greenfield Park Cultural Center,Greenfield Park Uptown,fluorescent,pedestrianPath,bootingUp,brokenLantern
streetlight,streetlight_000340,sl_000341,2,56.198084,10.155137,/d2/streetlight/sl_000341,"Bridge Ln, Eastshore Quarter",Eastshore Quarter Botanical Garden,Eastshore Quarter Arts Quarter,LED,playground,on,ok
streetlight,streetlight_000341,sl_000342,1,56.176008,10.234434,/d1/streetlight/sl_000342,"Valley Path, Westside Heights",Westside Heights Cultural Center,Westside Heights Residential Block,HPS,road,off,defectiveLamp
streetlight,streetlight_000342,sl_000343,0,56.126747,10.215295,/d0/streetlight/sl_000343,"Tower Ln, North Harbor",North Harbor Central Plaza,North Harbor Downtown,MH,sidewalk,low,columnIssue
streetlight,streetlight_000343,sl_000344,6,56.167792,10.167612,/d6/streetlight/sl_000344,"Canal St, Old Town Core",Old Town Core Historic Market,Old Town Core Civic Center,fluorescent,tunnel,bootingUp,brokenLantern
streetlight,streetlight_000344,sl_000345,2,56.192565,10.150856,/d2/streetlight/sl_000345,"Garden St, Eastshore Quarter",Eastshore Quarter Riverside Park,Eastshore Quarter Downtown,LED,facade,on,ok
streetlight,streetlight_000345,sl_000346,1,56.171693,10.239168,/d1/streetlight/sl_000346,"Mill Rd, Westside Heights",Westside Heights Central Plaza,Westside Heights Uptown,HPS,garden,off,defectiveLamp
streetlight,streetlight_000346,sl_000347,7,56.197868,10.202967,/d7/streetlight/sl_000347,"School St, Greenfield Park",Greenfield Park City Library,Greenfield Park Transit Hub,MH,park,low,columnIssue
streetlight,streetlight_000347,sl_000348,1,56.144929,10.222744,/d1/streetlight/sl_000348,"Ash Ct, Westside Heights",Westside Heights Harbor Bridge,Westside Heights Civic Center,fluorescent,pedestrianPath,bootingUp,brokenLantern
streetlight,streetlight_000348,sl_000349,4,56.135127,10.170874,/d4/streetlight/sl_000349,"Garden St, Midtown Center",Midtown Center Botanical Garden,Midtown Center Residential Block,LED,playground,on,ok
streetlight,streetlight_000349,sl_000350,1,56.144041,10.226024,/d1/streetlight/sl_000350,"Ash Ct, Westside Heights",Westside Heights Lighthouse,Westside Heights Residential Block,HPS,road,off,defectiveLamp
streetlight,streetlight_000350,sl_000351,4,56.123246,10.17426,/d4/streetlight/sl_000351,"Market Rd, Midtown Center",Midtown Center Waterfront Promenade,Midtown Center Uptown,MH,sidewalk,low,columnIssue
streetlight,streetlight_000351,sl_000352,7,56.198921,10.228465,/d7/streetlight/sl_000352,"School St, Greenfield Park",Greenfield Park City Library,Greenfield Park Residential Block,fluorescent,tunnel,bootingUp,brokenLantern
streetlight,streetlight_000352,sl_000353,1,56.17447,10.231424,/d1/streetlight/sl_000353,"Willow Way, Westside Heights",Westside Heights Central Plaza,Westside Heights Arts Quarter,LED,facade,on,ok
streetlight,streetlight_000353,sl_000354,1,56.163083,10.234083,/d1/streetlight/sl_000354,"Queen Ave, Westside Heights",Westside Heights Clock Tower,Westside Heights Arts Quarter,HPS,garden,off,defectiveLamp
streetlight,streetlight_000354,sl_000355,0,56.123731,10.185136,/d0/streetlight/sl_000355,"Market Rd, North Harbor",North Harbor Art Museum,North Harbor Civic Center,MH,park,low,columnIssue
streetlight,streetlight_000355,sl_000356,2,56.189104,10.164834,/d2/streetlight/sl_000356,"Harbor Blvd, Eastshore Quarter",Eastshore Quarter City Library,Eastshore Quarter Financial Row,fluorescent,pedestrianPath,bootingUp,brokenLantern
streetlight,streetlight_000356,sl_000357,7,56.189988,10.191344,/d7/streetlight/sl_000357,"Park Rd, Greenfield Park",Greenfield Park Town Square,Greenfield Park Financial Row,LED,playground,on,ok
streetlight,streetlight_000357,sl_000358,1,56.175681,10.233966,/d1/streetlight/sl_000358,"Castle Rd, Westside Heights",Westside Heights Sports Arena,Westside Heights Arts Quarter,HPS,road,off,defectiveLamp
streetlight,streetlight_000358,sl_000359,3,56.127105,10.234098,/d3/streetlight/sl_000359,"Oak Ave, South Hills",South Hills Art Museum,South Hills Transit Hub,MH,sidewalk,low,columnIssue
streetlight,streetlight_000359,sl_000360,0,56.129387,10.187085,/d0/streetlight/sl_000360,"Valley Path, North Harbor",North Harbor Lighthouse,North Harbor Residential Block,fluorescent,tunnel,bootingUp,brokenLantern
streetlight,streetlight_000360,sl_000361,6,56.168133,10.166357,/d6/streetlight/sl_000361,"Mill Rd, Old Town Core",Old Town Core City Hall,Old Town Core Arts Quarter,LED,facade,on,ok
streetlight,streetlight_000361,sl_000362,0,56.133712,10.205383,/d0/streetlight/sl_000362,"Market Rd, North Harbor",North Harbor Central Plaza,North Harbor Downtown,HPS,garden,off,defectiveLamp
streetlight,streetlight_000362,sl_000363,1,56.159864,10.249999,/d1/streetlight/sl_000363,"School St, Westside Heights",Westside Heights Riverside Park,Westside Heights Downtown,MH,park,low,columnIssue
streetlight,streetlight_000363,sl_000364,7,56.178452,10.212192,/d7/streetlight/sl_000364,"River Rd, Greenfield Park",Greenfield Park City Hall,Greenfield Park Transit Hub,fluorescent,pedestrianPath,bootingUp,brokenLantern
streetlight,streetlight_000364,sl_000365,5,56.143537,10.190418,/d5/streetlight/sl_000365,"Market Rd, Lakeside District",Lakeside District City Library,Lakeside District Arts Quarter,LED,playground,on,ok
streetlight,streetlight_000365,sl_000366,3,56.136284,10.229091,/d3/streetlight/sl_000366,"Valley Path, South Hills",South Hills City Hall,South Hills Commercial Strip,HPS,road,off,defectiveLamp
streetlight,streetlight_000366,sl_000367,1,56.158277,10.2429,/d1/streetlight/sl_000367,"Mill Rd, Westside Heights",Westside Heights Sports Arena,Westside Heights Civic Center,MH,sidewalk,low,columnIssue
streetlight,streetlight_000367,sl_000368,5,56.162299,10.196779,/d5/streetlight/sl_000368,"Park Rd, Lakeside District",Lakeside District Clock Tower,Lakeside District Commercial Strip,fluorescent,tunnel,bootingUp,brokenLantern
streetlight,streetlight_000368,sl_000369,2,56.177674,10.164801,/d2/streetlight/sl_000369,"Canal St, Eastshore Quarter",Eastshore Quarter Town Square,Eastshore Quarter Transit Hub,LED,facade,on,ok
streetlight,streetlight_000369,sl_000370,1,56.144548,10.247561,/d1/streetlight/sl_000370,"Oak Ave, Westside Heights",Westside Heights Art Museum,Westside Heights Industrial Zone,HPS,garden,off,defectiveLamp
streetlight,streetlight_000370,sl_000371,7,56.180049,10.185124,/d7/streetlight/sl_000371,"Castle Rd, Greenfield Park",Greenfield Park City Hall,Greenfield Park Downtown,MH,park,low,columnIssue
streetlight,streetlight_000371,sl_000372,6,56.160169,10.167812,/d6/streetlight/sl_000372,"Ash Ct, Old Town Core",Old Town Core Central Plaza,Old Town Core Uptown,fluorescent,pedestrianPath,bootingUp,brokenLantern
streetlight,streetlight_000372,sl_000373,6,56.168785,10.162298,/d6/streetlight/sl_000373,"River Rd, Old Town Core",Old Town Core Historic Market,Old Town Core Commercial Strip,LED,playground,on,ok
streetlight,streetlight_000373,sl_000374,5,56.158417,10.212742,/d5/streetlight/sl_000374,"Market Rd, Lakeside District",Lakeside District University Campus,Lakeside District Waterfront,HPS,road,off,defectiveLamp
streetlight,streetlight_000374,sl_000375,5,56.173595,10.188455,/d5/streetlight/sl_000375,"Cherry Ln, Lakeside District",Lakeside District University Campus,Lakeside District Downtown,MH,sidewalk,low,columnIssue
streetlight,streetlight_000375,sl_000376,5,56.171823,10.179087,/d5/streetlight/sl_000376,"Valley Path, Lakeside District",Lakeside District City Library,Lakeside District Financial Row,fluorescent,tunnel,bootingUp,brokenLantern
streetlight,streetlight_000376,sl_000377,7,56.193859,10.186345,/d7/streetlight/sl_000377,"Spruce St, Greenfield Park",Greenfield Park Convention Center,Greenfield Park Waterfront,LED,facade,on,ok
streetlight,streetlight_000377,sl_000378,4,56.136376,10.159008,/d4/streetlight/sl_000378,"Lake Dr, Midtown Center",Midtown Center Harbor Bridge,Midtown Center Transit Hub,HPS,garden,off,defectiveLamp
streetlight,streetlight_000378,sl_000379,1,56.167005,10.234478,/d1/streetlight/sl_000379,"Cedar Ln, Westside Heights",Westside Heights Waterfront Promenade,Westside Heights Downtown,MH,park,low,columnIssue
streetlight,streetlight_000379,sl_000380,5,56.173612,10.184434,/d5/streetlight/sl_000380,"Forest Ave, Lakeside District",Lakeside District Central Plaza,Lakeside District Financial Row,fluorescent,pedestrianPath,bootingUp,brokenLantern
streetlight,streetlight_000380,sl_000381,5,56.172779,10.211329,/d5/streetlight/sl_000381,"Market Rd, Lakeside District",Lakeside District Central Plaza,Lakeside District Commercial Strip,LED,playground,on,ok
streetlight,streetlight_000381,sl_000382,3,56.122004,10.237856,/d3/streetlight/sl_000382,"School St, South Hills",South Hills Clock Tower,South Hills Uptown,HPS,road,off,defectiveLamp
streetlight,streetlight_000382,sl_000383,7,56.19054,10.230004,/d7/streetlight/sl_000383,"Harbor Blvd, Greenfield Park",Greenfield Park City Hall,Greenfield Park Commercial Strip,MH,sidewalk,low,columnIssue
streetlight,streetlight_000383,sl_000384,7,56.188165,10.181143,/d7/streetlight/sl_000384,"Birch Dr, Greenfield Park",Greenfield Park Botanical Garden,Greenfield Park Commercial Strip,fluorescent,tunnel,bootingUp,brokenLantern
streetlight,streetlight_000384,sl_000385,7,56.198602,10.177804,/d7/streetlight/sl_000385,"Oak Ave, Greenfield Park",Greenfield Park Riverside Park,Greenfield Park Industrial Zone,LED,facade,on,ok
streetlight,streetlight_000385,sl_000386,0,56.122817,10.186578,/d0/streetlight/sl_000386,"King Blvd, North Harbor",North Harbor Science Center,North Harbor Downtown,HPS,garden,off,defectiveLamp
streetlight,streetlight_000386,sl_000387,4,56.141668,10.168966,/d4/streetlight/sl_000387,"Garden St, Midtown Center",Midtown Center Science Center,Midtown Center Financial Row,MH,park,low,columnIssue
streetlight,streetlight_000387,sl_000388,5,56.171388,10.196093,/d5/streetlight/sl_000388,"Bridge Ln, Lakeside District",Lakeside District Lighthouse,Lakeside District Arts Quarter,fluorescent,pedestrianPath,bootingUp,brokenLantern
streetlight,streetlight_000388,sl_000389,3,56.142247,10.230766,/d3/streetlight/sl_000389,"Lake Dr, South Hills",South Hills Convention Center,South Hills Transit Hub,LED,playground,on,ok
streetlight,streetlight_000389,sl_000390,5,56.171772,10.220565,/d5/streetlight/sl_000390,"Garden St, Lakeside District",Lakeside District Science Center,Lakeside District Uptown,HPS,road,off,defectiveLamp
streetlight,streetlight_000390,sl_000391,5,56.14522,10.216566,/d5/streetlight/sl_000391,"School St, Lakeside District",Lakeside District Main Station,Lakeside District Arts Quarter,MH,sidewalk,low,columnIssue
streetlight,streetlight_000391,sl_000392,3,56.125704,10.244024,/d3/streetlight/sl_000392,"Lake Dr, South Hills",South Hills Harbor Bridge,South Hills Downtown,fluorescent,tunnel,bootingUp,brokenLantern
streetlight,streetlight_000392,sl_000393,5,56.148411,10.216861,/d5/streetlight/sl_000393,"Maple Blvd, Lakeside District",Lakeside District Shopping Mall,Lakeside District Civic Center,LED,facade,on,ok
streetlight,streetlight_000393,sl_000394,5,56.152256,10.189895,/d5/streetlight/sl_000394,"Church Ln, Lakeside District",Lakeside District Convention Center,Lakeside District Residential Block,HPS,garden,off,defectiveLamp
streetlight,streetlight_000394,sl_000395,5,56.169773,10.179736,/d5/streetlight/sl_000395,"Park Rd, Lakeside District",Lakeside District Town Square,Lakeside District Waterfront,MH,park,low,columnIssue
streetlight,streetlight_000395,sl_000396,5,56.161637,10.197182,/d5/streetlight/sl_000396,"Church Ln, Lakeside District",Lakeside District Main Station,Lakeside District Uptown,fluorescent,pedestrianPath,bootingUp,brokenLantern
streetlight,streetlight_000396,sl_000397,5,56.164822,10.180541,/d5/streetlight/sl_000397,"Park Rd, Lakeside District",Lakeside District Cathedral,Lakeside District Residential Block,LED,playground,on,ok
streetlight,streetlight_000397,sl_000398,5,56.149614,10.198718,/d5/streetlight/sl_000398,"Pine Rd, Lakeside District",Lakeside District Science Center,Lakeside District Civic Center,HPS,road,off,defectiveLamp
streetlight,streetlight_000398,sl_000399,7,56.180293,10.192636,/d7/streetlight/sl_000399,"Canal St, Greenfield Park",Greenfield Park Historic Market,Greenfield Park Downtown,MH,sidewalk,low,columnIssue
streetlight,streetlight_000399,sl_000400,4,56.13897,10.162859,/d4/streetlight/sl_000400,"Pine Rd, Midtown Center",Midtown Center City Hall,Midtown Center Uptown,fluorescent,tunnel,bootingUp,brokenLantern
streetlight,streetlight_000400,sl_000401,7,56.187837,10.190279,/d7/streetlight/sl_000401,"Spruce St, Greenfield Park",Greenfield Park Lighthouse,Greenfield Park Uptown,LED,facade,on,ok
streetlight,streetlight_000401,sl_000402,4,56.132458,10.16932,/d4/streetlight/sl_000402,"Oak Ave, Midtown Center",Midtown Center Shopping Mall,Midtown Center Residential Block,HPS,garden,off,defectiveLamp
streetlight,streetlight_000402,sl_000403,0,56.138211,10.209505,/d0/streetlight/sl_000403,"Willow Way, North Harbor",North Harbor Art Museum,North Harbor Industrial Zone,MH,park,low,columnIssue
streetlight,streetlight_000403,sl_000404,1,56.147578,10.238845,/d1/streetlight/sl_000404,"Cherry Ln, Westside Heights",Westside Heights Cathedral,Westside Heights Industrial Zone,fluorescent,pedestrianPath,bootingUp,brokenLantern
streetlight,streetlight_000404,sl_000405,6,56.143875,10.163056,/d6/streetlight/sl_000405,"River Rd, Old Town Core",Old Town Core Art Museum,Old Town Core Industrial Zone,LED,playground,on,ok
streetlight,streetlight_000405,sl_000406,5,56.144095,10.211966,/d5/streetlight/sl_000406,"Mill Rd, Lakeside District",Lakeside District Shopping Mall,Lakeside District Waterfront,HPS,road,off,defectiveLamp
streetlight,streetlight_000406,sl_000407,3,56.127344,10.223904,/d3/streetlight/sl_000407,"Gate St, South Hills",South Hills Clock Tower,South Hills Uptown,MH,sidewalk,low,columnIssue
streetlight,streetlight_000407,sl_000408,2,56.186925,10.157459,/d2/streetlight/sl_000408,"Ash Ct, Eastshore Quarter",Eastshore Quarter Central Plaza,Eastshore Quarter Financial Row,fluorescent,tunnel,bootingUp,brokenLantern
streetlight,streetlight_000408,sl_000409,2,56.193206,10.154233,/d2/streetlight/sl_000409,"Market Rd, Eastshore Quarter",Eastshore Quarter Waterfront Promenade,Eastshore Quarter Waterfront,LED,facade,on,ok
streetlight,streetlight_000409,sl_000410,7,56.187899,10.20213,/d7/streetlight/sl_000410,"Garden St, Greenfield Park",Greenfield Park Art Museum,Greenfield Park Industrial Zone,HPS,garden,off,defectiveLamp
streetlight,streetlight_000410,sl_000411,5,56.159443,10.182673,/d5/streetlight/sl_000411,"River Rd, Lakeside District",Lakeside District Historic Market,Lakeside District Commercial Strip,MH,park,low,columnIssue
streetlight,streetlight_000411,sl_000412,5,56.159133,10.212706,/d5/streetlight/sl_000412,"School St, Lakeside District",Lakeside District Shopping Mall,Lakeside District Civic Center,fluorescent,pedestrianPath,bootingUp,brokenLantern
streetlight,streetlight_000412,sl_000413,7,56.19234,10.227868,/d7/streetlight/sl_000413,"Cedar Ln, Greenfield Park",Greenfield Park Riverside Park,Greenfield Park Transit Hub,LED,playground,on,ok
streetlight,streetlight_000413,sl_000414,7,56.180908,10.198923,/d7/streetlight/sl_000414,"Lake Dr, Greenfield Park",Greenfield Park Historic Market,Greenfield Park Waterfront,HPS,road,off,defectiveLamp
streetlight,streetlight_000414,sl_000415,5,56.176662,10.214493,/d5/streetlight/sl_000415,"Cedar Ln, Lakeside District",Lakeside District Shopping Mall,Lakeside District Civic Center,MH,sidewalk,low,columnIssue
streetlight,streetlight_000415,sl_000416,5,56.148178,10.211694,/d5/streetlight/sl_000416,"Cedar Ln, Lakeside District",Lakeside District Central Plaza,Lakeside District Residential Block,fluorescent,tunnel,bootingUp,brokenLantern
streetlight,streetlight_000416,sl_000417,7,56.197469,10.184014,/d7/streetlight/sl_000417,"Castle Rd, Greenfield Park",Greenfield Park Clock Tower,Greenfield Park Arts Quarter,LED,facade,on,ok
streetlight,streetlight_000417,sl_000418,0,56.130777,10.178524,/d0/streetlight/sl_000418,"Lake Dr, North Harbor",North Harbor Shopping Mall,North Harbor Commercial Strip,HPS,garden,off,defectiveLamp
streetlight,streetlight_000418,sl_000419,7,56.197726,10.236846,/d7/streetlight/sl_000419,"King Blvd, Greenfield Park",Greenfield Park Riverside Park,Greenfield Park Financial Row,MH,park,low,columnIssue
streetlight,streetlight_000419,sl_000420,7,56.195711,10.214036,/d7/streetlight/sl_000420,"Cedar Ln, Greenfield Park",Greenfield Park Cathedral,Greenfield Park Transit Hub,fluorescent,pedestrianPath,bootingUp,brokenLantern
streetlight,streetlight_000420,sl_000421,6,56.163009,10.17517,/d6/streetlight/sl_000421,"Oak Ave, Old Town Core",Old Town Core Riverside Park,Old Town Core Waterfront,LED,playground,on,ok
streetlight,streetlight_000421,sl_000422,7,56.185325,10.206258,/d7/streetlight/sl_000422,"Valley Path, Greenfield Park",Greenfield Park Art Museum,Greenfield Park Arts Quarter,HPS,road,off,defectiveLamp
streetlight,streetlight_000422,sl_000423,5,56.155259,10.19894,/d5/streetlight/sl_000423,"Oak Ave, Lakeside District",Lakeside District Clock Tower,Lakeside District Arts Quarter,MH,sidewalk,low,columnIssue
streetlight,streetlight_000423,sl_000424,5,56.156198,10.221212,/d5/streetlight/sl_000424,"Cherry Ln, Lakeside District",Lakeside District Cultural Center,Lakeside District Uptown,fluorescent,tunnel,bootingUp,brokenLantern
streetlight,streetlight_000424,sl_000425,0,56.126988,10.218526,/d0/streetlight/sl_000425,"Canal St, North Harbor",North Harbor Lighthouse,North Harbor Transit Hub,LED,facade,on,ok
streetlight,streetlight_000425,sl_000426,0,56.131511,10.20772,/d0/streetlight/sl_000426,"Tower Ln, North Harbor",North Harbor Cathedral,North Harbor Residential Block,HPS,garden,off,defectiveLamp
streetlight,streetlight_000426,sl_000427,5,56.147609,10.189058,/d5/streetlight/sl_000427,"Mill Rd, Lakeside District",Lakeside District Sports Arena,Lakeside District Arts Quarter,MH,park,low,columnIssue
streetlight,streetlight_000427,sl_000428,6,56.160439,10.151415,/d6/streetlight/sl_000428,"Cherry Ln, Old Town Core",Old Town Core Cathedral,Old Town Core Arts Quarter,fluorescent,pedestrianPath,bootingUp,brokenLantern
streetlight,streetlight_000428,sl_000429,1,56.160968,10.236433,/d1/streetlight/sl_000429,"Cherry Ln, Westside Heights",Westside Heights Shopping Mall,Westside Heights Arts Quarter,LED,playground,on,ok
streetlight,streetlight_000429,sl_000430,5,56.175216,10.190134,/d5/streetlight/sl_000430,"School St, Lakeside District",Lakeside District Botanical Garden,Lakeside District Industrial Zone,HPS,road,off,defectiveLamp
streetlight,streetlight_000430,sl_000431,2,56.190553,10.173769,/d2/streetlight/sl_000431,"Park Rd, Eastshore Quarter",Eastshore Quarter University Campus,Eastshore Quarter Uptown,MH,sidewalk,low,columnIssue
streetlight,streetlight_000431,sl_000432,5,56.169253,10.18406,/d5/streetlight/sl_000432,"Elm St, Lakeside District",Lakeside District Waterfront Promenade,Lakeside District Waterfront,fluorescent,tunnel,bootingUp,brokenLantern
streetlight,streetlight_000432,sl_000433,1,56.167049,10.238533,/d1/streetlight/sl_000433,"Castle Rd, Westside Heights",Westside Heights City Hall,Westside Heights Financial Row,LED,facade,on,ok
streetlight,streetlight_000433,sl_000434,0,56.133251,10.216986,/d0/streetlight/sl_000434,"Cherry Ln, North Harbor",North Harbor Cultural Center,North Harbor Uptown,HPS,garden,off,defectiveLamp
streetlight,streetlight_000434,sl_000435,6,56.167497,10.175852,/d6/streetlight/sl_000435,"Canal St, Old Town Core",Old Town Core Science Center,Old Town Core Residential Block,MH,park,low,columnIssue
streetlight,streetlight_000435,sl_000436,0,56.12253,10.200769,/d0/streetlight/sl_000436,"Church Ln, North Harbor",North Harbor Clock Tower,North Harbor Transit Hub,fluorescent,pedestrianPath,bootingUp,brokenLantern
streetlight,streetlight_000436,sl_000437,6,56.159049,10.176596,/d6/streetlight/sl_000437,"Queen Ave, Old Town Core",Old Town Core City Library,Old Town Core Financial Row,LED,playground,on,ok
streetlight,streetlight_000437,sl_000438,1,56.158332,10.223866,/d1/streetlight/sl_000438,"Station Rd, Westside Heights",Westside Heights Sports Arena,Westside Heights Commercial Strip,HPS,road,off,defectiveLamp
streetlight,streetlight_000438,sl_000439,7,56.179425,10.189061,/d7/streetlight/sl_000439,"Church Ln, Greenfield Park",Greenfield Park Art Museum,Greenfield Park Commercial Strip,MH,sidewalk,low,columnIssue
streetlight,streetlight_000439,sl_000440,1,56.185344,10.238606,/d1/streetlight/sl_000440,"Lake Dr, Westside Heights",Westside Heights Botanical Garden,Westside Heights Financial Row,fluorescent,tunnel,bootingUp,brokenLantern
streetlight,streetlight_000440,sl_000441,4,56.142005,10.16957,/d4/streetlight/sl_000441,"Church Ln, Midtown Center",Midtown Center Science Center,Midtown Center Residential Block,LED,facade,on,ok
streetlight,streetlight_000441,sl_000442,3,56.126282,10.243834,/d3/streetlight/sl_000442,"School St, South Hills",South Hills Botanical Garden,South Hills Financial Row,HPS,garden,off,defectiveLamp
streetlight,streetlight_000442,sl_000443,4,56.123482,10.15133,/d4/streetlight/sl_000443,"Oak Ave, Midtown Center",Midtown Center Botanical Garden,Midtown Center Commercial Strip,MH,park,low,columnIssue
streetlight,streetlight_000443,sl_000444,6,56.152924,10.171602,/d6/streetlight/sl_000444,"Tower Ln, Old Town Core",Old Town Core City Library,Old Town Core Financial Row,fluorescent,pedestrianPath,bootingUp,brokenLantern
streetlight,streetlight_000444,sl_000445,7,56.18087,10.211943,/d7/streetlight/sl_000445,"River Rd, Greenfield Park",Greenfield Park Main Station,Greenfield Park Waterfront,LED,playground,on,ok
streetlight,streetlight_000445,sl_000446,5,56.167814,10.220799,/d5/streetlight/sl_000446,"Spruce St, Lakeside District",Lakeside District University Campus,Lakeside District Industrial Zone,HPS,road,off,defectiveLamp
streetlight,streetlight_000446,sl_000447,7,56.193625,10.234662,/d7/streetlight/sl_000447,"Garden St, Greenfield Park",Greenfield Park Central Plaza,Greenfield Park Arts Quarter,MH,sidewalk,low,columnIssue
streetlight,streetlight_000447,sl_000448,5,56.142745,10.188179,/d5/streetlight/sl_000448,"Elm St, Lakeside District",Lakeside District Lighthouse,Lakeside District Industrial Zone,fluorescent,tunnel,bootingUp,brokenLantern
streetlight,streetlight_000448,sl_000449,5,56.168148,10.216171,/d5/streetlight/sl_000449,"Harbor Blvd, Lakeside District",Lakeside District City Library,Lakeside District Uptown,LED,facade,on,ok
streetlight,streetlight_000449,sl_000450,6,56.174463,10.173259,/d6/streetlight/sl_000450,"Summit Way, Old Town Core",Old Town Core Harbor Bridge,Old Town Core Industrial Zone,HPS,garden,off,defectiveLamp
streetlight,streetlight_000450,sl_000451,5,56.161493,10.21164,/d5/streetlight/sl_000451,"Tower Ln, Lakeside District",Lakeside District Central Plaza,Lakeside District Waterfront,MH,park,low,columnIssue
streetlight,streetlight_000451,sl_000452,3,56.12764,10.236621,/d3/streetlight/sl_000452,"Summit Way, South Hills",South Hills Convention Center,South Hills Financial Row,fluorescent,pedestrianPath,bootingUp,brokenLantern
streetlight,streetlight_000452,sl_000453,5,56.156326,10.184198,/d5/streetlight/sl_000453,"Harbor Blvd, Lakeside District",Lakeside District Shopping Mall,Lakeside District Financial Row,LED,playground,on,ok
streetlight,streetlight_000453,sl_000454,6,56.145884,10.174969,/d6/streetlight/sl_000454,"Market Rd, Old Town Core",Old Town Core Clock Tower,Old Town Core Waterfront,HPS,road,off,defectiveLamp
streetlight,streetlight_000454,sl_000455,6,56.169568,10.159787,/d6/streetlight/sl_000455,"Market Rd, Old Town Core",Old Town Core Art Museum,Old Town Core Uptown,MH,sidewalk,low,columnIssue
streetlight,streetlight_000455,sl_000456,5,56.147518,10.215154,/d5/streetlight/sl_000456,"Market Rd, Lakeside District",Lakeside District City Hall,Lakeside District Transit Hub,fluorescent,tunnel,bootingUp,brokenLantern
streetlight,streetlight_000456,sl_000457,1,56.172236,10.242172,/d1/streetlight/sl_000457,"Harbor Blvd, Westside Heights",Westside Heights Convention Center,Westside Heights Residential Block,LED,facade,on,ok
streetlight,streetlight_000457,sl_000458,7,56.19311,10.234504,/d7/streetlight/sl_000458,"Lake Dr, Greenfield Park",Greenfield Park Shopping Mall,Greenfield Park Waterfront,HPS,garden,off,defectiveLamp
streetlight,streetlight_000458,sl_000459,7,56.183367,10.205473,/d7/streetlight/sl_000459,"Tower Ln, Greenfield Park",Greenfield Park Sports Arena,Greenfield Park Civic Center,MH,park,low,columnIssue
streetlight,streetlight_000459,sl_000460,6,56.174978,10.174168,/d6/streetlight/sl_000460,"School St, Old Town Core",Old Town Core City Hall,Old Town Core Financial Row,fluorescent,pedestrianPath,bootingUp,brokenLantern
streetlight,streetlight_000460,sl_000461,1,56.149594,10.230254,/d1/streetlight/sl_000461,"Market Rd, Westside Heights",Westside Heights Art Museum,Westside Heights Uptown,LED,playground,on,ok
streetlight,streetlight_000461,sl_000462,5,56.152083,10.203552,/d5/streetlight/sl_000462,"Harbor Blvd, Lakeside District",Lakeside District City Hall,Lakeside District Industrial Zone,HPS,road,off,defectiveLamp
streetlight,streetlight_000462,sl_000463,0,56.140054,10.190201,/d0/streetlight/sl_000463,"Bridge Ln, North Harbor",North Harbor Clock Tower,North Harbor Commercial Strip,MH,sidewalk,low,columnIssue
streetlight,streetlight_000463,sl_000464,1,56.190948,10.238374,/d1/streetlight/sl_000464,"Church Ln, Westside Heights",Westside Heights Historic Market,Westside Heights Civic Center,fluorescent,tunnel,bootingUp,brokenLantern
streetlight,streetlight_000464,sl_000465,0,56.121527,10.198706,/d0/streetlight/sl_000465,"Pine Rd, North Harbor",North Harbor Harbor Bridge,North Harbor Uptown,LED,facade,on,ok
streetlight,streetlight_000465,sl_000466,5,56.170912,10.187615,/d5/streetlight/sl_000466,"Station Rd, Lakeside District",Lakeside District Cultural Center,Lakeside District Uptown,HPS,garden,off,defectiveLamp
streetlight,streetlight_000466,sl_000467,0,56.129494,10.186808,/d0/streetlight/sl_000467,"Oak Ave, North Harbor",North Harbor Shopping Mall,North Harbor Commercial Strip,MH,park,low,columnIssue
streetlight,streetlight_000467,sl_000468,6,56.169979,10.166646,/d6/streetlight/sl_000468,"Maple Blvd, Old Town Core",Old Town Core Harbor Bridge,Old Town Core Transit Hub,fluorescent,pedestrianPath,bootingUp,brokenLantern
streetlight,streetlight_000468,sl_000469,5,56.146078,10.214222,/d5/streetlight/sl_000469,"King Blvd, Lakeside District",Lakeside District Art Museum,Lakeside District Commercial Strip,LED,playground,on,ok
streetlight,streetlight_000469,sl_000470,3,56.139325,10.222795,/d3/streetlight/sl_000470,"Maple Blvd, South Hills",South Hills Harbor Bridge,South Hills Arts Quarter,HPS,road,off,defectiveLamp
streetlight,streetlight_000470,sl_000471,0,56.127696,10.194976,/d0/streetlight/sl_000471,"Lake Dr, North Harbor",North Harbor Sports Arena,North Harbor Transit Hub,MH,sidewalk,low,columnIssue
streetlight,streetlight_000471,sl_000472,7,56.189585,10.217816,/d7/streetlight/sl_000472,"Spruce St, Greenfield Park",Greenfield Park Cultural Center,Greenfield Park Industrial Zone,fluorescent,tunnel,bootingUp,brokenLantern
streetlight,streetlight_000472,sl_000473,3,56.124988,10.235512,/d3/streetlight/sl_000473,"Willow Way, South Hills",South Hills Riverside Park,South Hills Commercial Strip,LED,facade,on,ok
streetlight,streetlight_000473,sl_000474,6,56.15305,10.161964,/d6/streetlight/sl_000474,"Oak Ave, Old Town Core",Old Town Core Convention Center,Old Town Core Uptown,HPS,garden,off,defectiveLamp
streetlight,streetlight_000474,sl_000475,6,56.164837,10.155119,/d6/streetlight/sl_000475,"Station Rd, Old Town Core",Old Town Core Convention Center,Old Town Core Residential Block,MH,park,low,columnIssue
streetlight,streetlight_000475,sl_000476,3,56.138954,10.225606,/d3/streetlight/sl_000476,"Garden St, South Hills",South Hills Convention Center,South Hills Commercial Strip,fluorescent,pedestrianPath,bootingUp,brokenLantern
streetlight,streetlight_000476,sl_000477,6,56.15097,10.176568,/d6/streetlight/sl_000477,"Pine Rd, Old Town Core",Old Town Core City Hall,Old Town Core Waterfront,LED,playground,on,ok
streetlight,streetlight_000477,sl_000478,6,56.168894,10.156462,/d6/streetlight/sl_000478,"Canal St, Old Town Core",Old Town Core Town Square,Old Town Core Financial Row,HPS,road,off,defectiveLamp
streetlight,streetlight_000478,sl_000479,1,56.168788,10.244979,/d1/streetlight/sl_000479,"Willow Way, Westside Heights",Westside Heights Riverside Park,Westside Heights Arts Quarter,MH,sidewalk,low,columnIssue
streetlight,streetlight_000479,sl_000480,7,56.18216,10.207149,/d7/streetlight/sl_000480,"Station Rd, Greenfield Park",Greenfield Park Waterfront Promenade,Greenfield Park Commercial Strip,fluorescent,tunnel,bootingUp,brokenLantern
streetlight,streetlight_000480,sl_000481,5,56.159479,10.20408,/d5/streetlight/sl_000481,"Summit Way, Lakeside District",Lakeside District City Hall,Lakeside District Waterfront,LED,facade,on,ok
streetlight,streetlight_000481,sl_000482,0,56.135344,10.208952,/d0/streetlight/sl_000482,"Canal St, North Harbor",North Harbor Harbor Bridge,North Harbor Industrial Zone,HPS,garden,off,defectiveLamp
streetlight,streetlight_000482,sl_000483,2,56.184706,10.151269,/d2/streetlight/sl_000483,"Harbor Blvd, Eastshore Quarter",Eastshore Quarter University Campus,Eastshore Quarter Commercial Strip,MH,park,low,columnIssue
streetlight,streetlight_000483,sl_000484,1,56.147412,10.230648,/d1/streetlight/sl_000484,"Canal St, Westside Heights",Westside Heights Riverside Park,Westside Heights Uptown,fluorescent,pedestrianPath,bootingUp,brokenLantern
